,Rank,City,Country,2023,Jan,Feb,Mar,Apr,May,Jun,Jul,Aug,Sep,Oct,Nov,Dec,Latitude,Longitude
0,1,Begusarai,India,118.9,31.2,235.3,156.8,113.0,109.3,99.0,63.8,61.8,71.5,61.8,210.5,285.0,25.5125411,86.0883392
1,2,Guwahati,India,105.4,220.2,168.1,129.2,112.2,69.5,51.3,46.6,60.2,76.7,76.4,126.9,128.0,26.1805978,91.753943
2,3,Delhi,India,102.1,171.8,114.3,77.4,71.0,67.4,42.9,35.3,34.8,39.7,106.3,255.1,210.0,28.6273928,77.1716954
3,4,Mullanpur,India,100.4,106.3,123.7,78.1,56.6,53.4,53.9,63.2,59.7,59.6,110.4,253.0,201.4,30.7191606,76.3660295
4,5,Lahore,Pakistan,99.5,143.2,117.3,73.8,52.9,52.4,46.4,39.8,42.2,53.8,125.9,251.0,197.5,31.5656822,74.3141829
5,6,New Delhi,India,92.7,162.6,98.2,67.1,59.0,57.7,40.1,31.7,35.0,38.0,94.7,234.7,193.8,28.6430858,77.2192671
6,7,Siwan,India,90.6,223.6,167.5,108.3,71.7,59.8,48.9,35.7,30.4,54.7,48.9,136.3,77.6,26.131008,84.3910745
7,8,Saharsa,India,89.4,202.0,147.1,108.8,88.8,60.3,43.6,16.7,24.3,33.6,41.8,115.8,167.8,25.8330757,86.6143751
8,9,Goshaingaon,India,89.3,205.3,117.5,63.8,63.3,60.7,39.2,27.3,38.3,33.9,81.1,152.0,156.1,25.3670923,87.106891
9,10,Katihar,India,88.8,224.1,113.3,94.0,74.1,49.9,34.7,17.7,27.6,33.9,63.9,134.1,180.5,25.5586421,87.6457196
10,11,Greater Noida,India,88.6,166.5,85.9,64.4,69.2,59.5,42.9,28.1,33.9,38.7,111.6,215.4,142.0,28.4670734,77.5137649
11,12,Faisalabad,Pakistan,88.2,92.0,106.5,66.5,44.5,42.9,43.8,41.349999999999994,38.9,46.0,70.4,196.8,204.2,31.4220558,73.0923253
12,13,Hotan,China,87.3,95.0,63.9,99.9,133.4,88.2,97.1,81.5,99.6,84.1,53.6,59.8,93.8,37.1144827,79.9200157
13,14,Bettiah,India,85.7,225.3,162.6,118.6,90.4,67.4,40.2,23.2,32.4,31.2,49.0,97.6,78.7,26.8023,84.5074
14,15,Samastipur,India,85.3,200.6,154.5,103.0,81.4,66.4,43.0,26.9,31.9,37.1,49.1,123.1,75.5,25.7747884,85.8672314
15,16,Muzaffarnagar,India,85.0,120.3,95.6,81.9,75.5,77.7,47.1,31.4,41.7,53.7,100.9,122.2,156.5,29.4496978,77.7429333
16,17,Gurugram,India,84.0,125.9,73.7,64.3,74.2,75.3,56.1,39.8,48.2,54.7,89.1,177.5,129.3,28.4646148,77.0299194
17,18,Arrah,India,83.6,155.4,103.7,84.6,63.7,63.3,52.5,50.7,39.9,31.9,59.0,145.8,143.6,25.560317,84.6632139
18,19,Dadri,India,83.6,140.4,73.6,52.3,46.5,41.7,30.0,23.4,41.2,49.1,116.6,228.8,176.8,28.5387298,77.5372191
19,20,Patna,India,82.2,170.1,112.5,83.3,78.4,61.0,54.3,33.9,38.0,34.2,61.0,138.5,124.6,25.6093239,85.1235252
20,21,Chapra,India,81.4,191.9,123.0,87.6,60.4,49.9,38.8,25.8,43.9,36.5,29.9,150.2,142.7,25.7733443,84.7849772
21,22,Dharuhera,India,81.1,143.6,101.7,76.6,82.3,58.4,59.6,29.6,38.8,33.4,78.1,157.0,90.3,28.2055216,76.7953099
22,23,Hanumangarh,India,80.9,90.2,90.2,73.6,54.9,62.2,27.0,19.3,24.1,32.0,86.6,234.7,201.3,29.3659533,74.298429
23,24,Dhaka,Bangladesh,80.2,175.5,107.0,82.5,61.6,49.2,42.7,23.6,44.8,39.0,74.9,101.6,160.3,23.7643863,90.3890144
24,25,Faridabad,India,79.9,134.9,79.7,70.1,57.3,52.7,49.3,27.6,29.1,37.6,81.6,193.1,146.6,28.4031478,77.3105561
25,26,Noida,India,79.8,132.1,78.8,57.6,52.8,53.6,36.9,31.6,32.8,37.2,82.0,196.9,165.3,28.5706333,77.3272147
26,27,Bhagalpur,India,79.7,199.8,105.7,80.8,60.3,44.4,35.5,19.8,29.9,36.5,53.8,122.4,163.4,25.2861354,87.1304229
27,28,Meerut,India,78.9,137.0,103.5,73.4,56.4,56.5,32.9,19.1,28.9,33.4,98.5,184.3,122.6,29.0018557,77.7679671
28,29,Muzaffarpur,India,77.5,162.8,117.8,84.3,93.5,63.7,53.9,25.5,31.2,32.0,53.1,103.3,112.9,26.1482548,85.3316097
29,30,Agartala,India,77.4,104.7,105.9,96.7,91.5,63.5,58.6,32.9,55.9,47.0,74.9,84.2,93.6,23.8312377,91.2823821
30,31,Bhiwadi,India,77.1,99.3,74.0,68.1,60.9,50.6,46.5,25.3,32.9,47.1,90.9,185.0,138.4,28.2039413,76.837441
31,32,Bandhwari,India,76.8,137.6,93.5,55.0,53.3,50.4,35.6,28.2,29.9,34.1,73.9,184.3,130.2,28.4024177,77.1721812
32,33,Baghpat,India,76.6,125.2,98.3,77.9,75.9,72.7,37.6,24.7,28.8,35.9,79.4,164.6,122.5,29.0374779,77.3062737
33,34,Peshawar,Pakistan,76.5,135.9,78.7,53.3,34.2,39.0,42.9,35.5,44.0,52.8,83.1,155.8,166.3,34.0123846,71.5787458
34,35,Ghaziabad,India,76.1,132.6,79.8,58.8,52.1,46.3,31.7,32.0,30.7,33.9,75.1,191.2,149.0,28.7749966,77.4586967
35,36,Charkhi Dadri,India,75.9,91.5,76.3,75.3,99.5,99.8,65.3,35.3,54.9,34.3,67.4,119.4,95.6,28.5919933,76.2719817
36,37,Araria,India,75.8,159.5,115.0,106.8,64.0,36.7,20.8,10.3,20.3,28.7,56.0,86.4,150.4,26.2651013,87.3699437
37,38,Alandi,India,75.7,153.4,116.6,77.6,54.6,44.2,50.7,29.6,46.3,44.2,93.8,67.1,85.0,20.0682631,73.6975659
38,39,Rajgir,India,75.3,185.6,96.1,56.9,43.0,45.7,31.4,20.9,32.9,35.0,54.2,144.1,118.0,25.0299973,85.4207368
39,40,Bahadurgarh,India,75.2,90.5,65.0,59.1,64.0,64.4,44.9,31.1,36.6,42.4,111.9,179.6,107.1,28.6609648,76.8346765
40,41,Monghyr,India,73.1,161.8,104.3,84.3,72.1,66.9,53.0,34.1,43.3,40.1,48.2,63.1,83.3,25.3773519,86.4731039
41,42,Kashgar,China,72.3,107.0,68.3,91.0,119.3,47.1,31.7,32.2,42.3,44.0,41.1,81.1,161.4,39.4665981,75.9900135
42,43,South Tangerang,Indonesia,71.7,44.8,31.9,65.7,56.9,94.2,83.1,88.9,94.2,73.9,80.8,69.4,61.2,-6.3227016,106.7085737
43,44,Karagandy,Kazakhstan,71.2,101.6,68.7,73.8,62.3,64.3,62.4,58.7,74.2,44.6,22.4,12.9,128.3,49.1767322,74.1811272
44,45,Mushalpur,India,69.9,155.9,112.9,71.6,51.7,74.1,38.8,18.3,38.2,30.5,44.3,86.2,102.1,26.6620387,91.3410716
45,46,Vapi,India,69.9,137.6,143.5,98.4,64.8,38.0,26.9,27.6,33.3,35.0,87.3,58.6,90.1,20.3735482,72.9084376
46,47,Rohtak,India,69.2,82.4,53.9,45.0,57.5,66.9,42.0,28.7,34.1,40.2,85.6,177.2,111.6,28.9010899,76.5801935
47,48,Kaithal,India,68.5,81.7,60.4,44.9,51.8,50.8,29.1,35.6,63.1,48.4,100.5,166.3,84.5,29.7996588,76.3989903
48,49,Dhaulpur,India,68.4,83.9,83.9,59.0,38.7,33.0,28.1,32.8,28.5,33.6,60.0,211.7,146.6,26.6530331,77.6241037
49,50,Ganganagar,India,68.3,73.3,73.3,73.3,64.3,55.9,29.9,38.9,26.1,36.2,84.7,172.3,98.2,23.7497214,91.876635
50,51,Morar,India,67.7,133.4,66.4,43.1,37.9,41.6,49.8,64.4,30.6,30.4,68.5,117.7,127.8,22.2843531,75.1052174
51,52,Vayushaktinagar,India,67.4,88.6,99.9,74.1,89.5,67.8,52.6,55.5,57.0,34.1,81.8,70.1,36.5,23.151,72.698
52,53,Hisar,India,67.3,75.6,55.9,62.0,58.3,72.3,42.4,36.6,47.6,27.2,31.0,176.8,90.8,29.2396596,75.8174505
53,54,Fatehgarh Sahib,India,66.6,91.5,61.5,78.9,66.3,55.8,39.8,40.7,51.4,43.5,60.8,114.0,97.4,30.6634041,76.3803
54,55,Bhiwani,India,66.1,77.8,56.4,62.1,55.0,62.3,61.2,27.3,26.8,23.7,76.1,156.4,103.2,28.7931703,76.1391283
55,56,Fatehabad,India,65.1,67.8,70.1,51.3,41.2,30.6,23.1,30.0,38.0,35.6,56.8,210.2,89.3,29.5359209,75.5752901
56,57,Bharatpur,India,65.1,95.8,95.8,61.4,49.5,37.5,33.2,28.1,36.1,32.0,73.6,152.2,129.5,27.0246959,77.2920116
57,58,Gaya,India,64.9,180.6,93.0,58.5,38.8,36.2,31.9,22.7,33.0,29.2,48.7,113.5,93.1,24.6793889,85.0115833
58,59,Jind,India,64.6,80.0,54.4,39.3,45.5,57.5,41.8,33.7,33.3,25.5,99.3,181.0,81.7,29.3152073,76.314082
59,60,Murthal,India,64.6,63.2,50.4,38.8,27.0,45.4,24.9,19.6,11.5,52.1,106.6,197.0,106.6,29.0396149,77.0894535
60,61,Alampur,India,64.4,85.7,86.7,67.1,75.8,56.7,53.3,58.2,48.2,25.4,74.1,75.3,34.8,15.8799583,78.1350753
61,62,Aurangabad,India,64.0,164.3,79.1,61.2,50.3,52.1,41.7,21.3,22.1,21.8,44.0,90.3,66.9,24.80332,84.4110198
62,63,Kurukshetra,India,64.0,80.9,65.4,46.9,53.2,66.2,38.5,24.0,35.2,40.6,89.0,119.6,90.5,29.9693747,76.8482787
63,64,Panposh,India,64.0,97.3,82.2,93.8,79.0,51.1,45.7,33.1,39.6,31.1,48.1,78.1,88.3,22.2285985,84.8053233
64,65,Gwalior,India,63.9,154.9,73.6,55.1,48.6,35.3,30.7,18.5,27.4,27.3,60.1,114.9,116.2,26.2037247,78.1573628
65,66,Bada Barabil,India,62.6,127.5,64.4,71.8,69.6,50.5,46.8,26.2,41.8,37.2,60.1,83.3,73.0,22.1118877,85.3868485
66,67,Asansol,India,62.4,128.7,86.9,74.2,68.7,55.2,41.7,20.6,38.0,28.1,52.0,76.4,68.3,23.6871297,86.9746587
67,68,Ujjain,India,62.2,89.0,55.8,127.3,36.6,43.6,43.5,31.6,44.3,22.4,47.3,92.7,82.2,23.1885131,75.7716562
68,69,Yamunanagar,India,61.9,91.2,69.4,48.5,57.8,56.0,39.6,29.0,45.0,53.3,71.9,88.9,72.3,30.1231349,77.286329
69,70,Khujand,Tajikistan,61.6,184.5,85.8,57.1,35.2,34.3,33.3,34.5,34.1,36.9,55.6,86.8,86.8,40.2844189,69.6191669
70,71,Tay Ho,Vietnam,61.5,117.2,80.7,88.4,72.2,43.6,33.3,26.4,38.6,41.5,50.0,72.5,74.6,21.0683576,105.8240984
71,72,Narnaul,India,61.4,99.8,63.0,51.8,68.9,43.8,45.8,42.7,29.4,28.1,49.1,143.4,71.8,28.0438456,76.1062015
72,73,Ludhiana,India,60.4,91.0,76.0,46.1,46.8,54.8,44.4,37.6,35.3,35.9,54.8,108.8,94.4,30.9090157,75.851601
73,74,Surat,India,60.3,96.1,86.1,69.5,18.9,21.9,19.8,20.1,43.1,94.1,65.4,91.9,73.2,21.2094892,72.8317058
74,75,Kuchaiburi,India,60.1,95.8,70.5,74.3,74.2,37.2,31.3,16.9,19.299999999999997,21.7,55.1,78.6,89.2,22.2667848,86.1705556
75,76,Pappankulam,India,59.5,80.0,67.1,55.2,44.0,48.9,31.4,47.0,43.4,39.3,62.2,82.1,92.8,11.0031243,79.1303579
76,77,Rawalpindi,Pakistan,59.5,87.8,72.7,43.5,26.2,26.8,30.5,29.8,41.7,48.1,61.6,106.7,139.7,33.5914237,73.0535122
77,78,Khurja,India,59.4,89.9,62.3,54.0,47.2,47.5,53.1,48.2,54.3,58.5,64.7,69.6,59.4,28.2062807,77.8764368
78,79,Motihari,India,59.3,149.0,55.8,49.8,44.3,52.2,32.0,14.6,33.2,34.1,38.0,69.3,83.7,26.6506888,84.9114654
79,80,Baddi,India,59.1,152.9,77.4,46.3,33.1,33.0,34.2,30.8,37.1,42.4,48.3,75.4,128.9,30.9763026,76.7674001
80,81,Talcher,India,59.0,78.0,68.6,61.9,61.8,40.3,31.1,17.1,17.6,22.7,35.1,96.3,138.3,20.9322302,85.2005822
81,82,Amritsar,India,58.9,79.5,63.7,54.1,62.1,51.8,35.5,41.7,41.9,38.1,55.5,97.5,79.8,31.6356659,74.8787496
82,83,Aksu,China,58.8,81.7,57.4,98.2,119.8,32.5,26.7,22.6,27.5,33.3,35.4,72.2,100.1,41.1677575,80.2582136
83,84,Bulandshahr,India,58.7,95.0,69.4,50.3,45.1,41.5,34.9,21.6,32.0,34.2,64.7,116.9,104.2,28.3874073,77.9743805
84,85,Kishanganj,India,58.0,148.7,104.0,66.2,50.6,29.7,27.5,16.3,24.2,24.4,50.3,77.1,61.1,26.2984144,87.9466715
85,86,Jalal-Abad,Kyrgyzstan,57.9,156.8,120.6,53.9,25.6,21.8,19.8,20.9,22.0,28.9,40.8,67.7,136.8,41.5107352,73.2283479
86,87,North Guwahati,India,56.7,145.7,106.2,71.6,64.8,35.2,25.7,16.1,20.1,24.2,34.6,62.6,76.2,26.2469084,91.7144048
87,88,Palasbari,India,56.7,111.3,97.7,67.9,66.5,29.4,36.5,25.1,18.1,19.0,40.4,68.2,88.7,26.0037118,91.49609
88,89,Chkalovsk,Tajikistan,56.6,214.1,96.0,60.5,25.3,22.8,23.0,21.9,20.4,27.0,40.0,40.0,40.0,40.2355209,69.6988599
89,90,Jayant,India,56.4,124.2,77.4,71.8,72.9,55.0,37.4,15.4,19.4,24.3,39.0,75.4,64.0,19.9518842,79.295578
90,91,Karachi,Pakistan,56.4,98.9,65.1,53.5,28.2,27.0,30.2,32.1,30.1,43.2,38.2,121.0,109.7,24.8546842,67.0207055
91,92,Kota,India,56.3,88.9,56.6,49.2,34.3,33.5,32.0,34.5,30.1,22.1,58.3,123.2,116.2,25.1737019,75.8574194
92,93,Chandigarh,India,56.1,107.7,68.6,47.7,34.7,40.8,29.5,23.2,32.2,37.5,53.3,87.6,112.2,30.7334421,76.7797143
93,94,Hajipur,India,56.0,105.9,97.1,76.6,55.2,34.2,38.7,21.4,29.9,20.5,42.6,77.5,72.8,25.6905702,85.2090351
94,95,Tonk,India,55.4,50.9,50.9,26.6,27.7,21.6,30.0,54.3,41.6,24.3,52.9,144.3,123.5,26.122266,75.8238631
95,96,Chittaurgarh,India,54.7,80.9,80.9,51.7,68.5,35.8,40.0,27.0,30.3,39.2,56.7,97.3,97.2,24.5,74.5
96,97,Jhunjhunun,India,54.4,36.8,36.8,36.8,26.6,28.0,23.6,31.2,50.6,42.9,57.1,134.1,112.8,28.1070891,75.3900287
97,98,Barbil,India,54.3,98.9,65.5,65.8,52.8,39.3,37.5,21.3,36.1,30.1,54.7,70.7,79.5,22.1048613,85.3690447
98,99,Kizilsu,China,54.2,56.3,38.7,69.9,99.0,40.2,27.0,30.6,36.8,31.7,29.4,53.9,138.1,39.7141576,76.1645911
99,100,Tangerang,Indonesia,54.1,27.1,24.3,42.6,34.6,71.0,61.8,70.1,73.8,60.7,68.3,62.4,53.7,-6.1761924,106.6382161
100,101,Pali,India,53.9,60.0,39.4,37.9,38.9,51.3,44.4,53.9,59.7,51.2,42.1,69.1,90.9,25.455221,73.419389
101,102,Dausa,India,53.8,54.0,54.0,42.9,36.3,41.9,33.1,28.5,43.8,30.9,47.4,133.7,101.2,26.8048658,76.4437457
102,103,Lucknow,India,53.5,76.9,62.0,45.5,51.9,51.2,43.7,24.1,35.7,29.9,48.7,97.1,77.0,26.8381,80.9346001
103,104,Bikaner,India,52.9,65.2,65.2,39.1,32.1,40.8,24.9,17.1,27.0,25.8,50.1,156.4,104.8,28.0159286,73.3171367
104,105,Baran,India,52.5,22.9,22.9,22.9,22.9,22.9,27.7,47.9,51.8,37.8,52.6,85.1,77.3,24.9208165,76.6821985
105,106,Raha,India,52.3,114.3,114.3,88.7,73.2,40.2,32.4,22.0,21.9,58.0,31.5,44.4,56.6,26.2006913,92.5145923
106,107,Hapur,India,52.2,55.0,36.1,27.8,24.5,22.3,23.3,25.4,35.0,36.9,83.1,137.6,118.0,28.7166767,77.890433
107,108,Visakhapatnam,India,52.1,86.9,58.0,52.2,44.4,38.4,42.6,29.1,39.5,37.9,63.8,58.3,73.9,17.6935526,83.2921297
108,109,Sreepur,Bangladesh,52.0,82.2,106.35,130.5,76.1,59.7,45.7,15.7,39.8,24.9,52.5,58.0,68.6,24.7973194,90.0216687
109,110,Kupti,India,52.0,81.9,62.3,60.6,52.4,45.0,31.7,16.5,19.6,23.2,57.6,82.5,88.0,19.2056512,77.9369624
110,111,Pimpri-Chinchwad,India,52.0,77.8,77.7,59.6,43.0,39.5,30.4,20.9,28.0,23.2,64.6,71.6,83.6,18.6279288,73.8009829
111,112,Ras Al Khaimah,United Arab Emirates,52.0,24.2,41.2,46.3,47.3,46.5,53.8,70.3,75.0,63.1,65.0,38.4,51.6,25.7737705,55.938232
112,113,Raurkela,India,51.9,78.4,51.1,79.9,74.5,40.8,38.4,21.0,30.5,29.1,44.7,80.8,52.4,22.2142849,84.8724369
113,114,Phan,Thailand,51.9,39.2,75.6,125.4,153.1,39.8,12.4,7.0,10.8,10.0,10.0,10.0,10.0,19.5664885,99.7651616
114,115,Linfen,China,51.7,89.0,89.6,53.7,51.1,36.8,32.7,27.3,26.8,35.7,60.2,44.3,71.8,36.229963,111.381767
115,116,Puyang,China,51.6,108.7,80.3,67.2,49.7,33.6,25.1,22.2,25.7,34.6,51.5,52.9,65.7,35.7631348,115.0234071
116,117,Jalandhar,India,51.4,74.7,51.3,42.7,41.0,40.7,35.4,29.2,32.7,31.5,52.4,104.7,80.9,31.2922311,75.5678878
117,118,Shihezi,China,51.3,186.2,143.3,45.9,18.8,16.3,16.1,14.1,15.5,14.6,23.5,36.3,84.9,44.3017013,86.0775574
118,119,Panchkula,India,51.2,76.8,49.8,41.5,50.1,52.2,42.1,33.0,44.4,45.4,51.2,59.3,60.8,30.6975401,76.8551066
119,120,Jaipur,India,51.2,66.1,52.5,41.0,42.6,37.5,32.9,29.6,36.2,28.1,49.2,108.4,92.2,26.9154576,75.8189817
120,121,Xianyang,China,51.1,116.6,103.9,56.7,53.4,23.1,19.9,20.7,20.6,23.7,36.5,57.8,84.6,34.3323227,108.7128495
121,122,Gharaunda,India,51.0,84.9,49.9,24.8,30.6,45.9,34.3,21.1,26.0,25.6,85.7,109.2,72.9,29.5394114,76.9388937
122,123,Howrah,India,51.0,110.6,71.5,50.1,41.8,30.0,26.6,13.5,31.3,20.5,44.6,84.5,89.1,22.5736296,88.3251045
123,124,Chiang Rai,Thailand,50.8,38.4,80.0,179.3,181.8,31.9,11.0,6.6,10.0,8.5,9.9,23.4,31.7,19.9068867,99.8332739
124,125,Mangla,Pakistan,50.7,27.6,50.9,32.2,18.0,18.6,28.2,31.5,39.4,55.4,52.1,85.8,128.2,33.050961,73.6338041
125,126,Anyang,China,50.6,90.4,83.8,63.8,52.1,30.5,21.7,22.0,25.0,28.6,50.6,61.4,77.7,35.9901282,114.5096506
126,127,Pai,Thailand,50.3,29.5,57.8,145.4,157.0,30.1,10.4,4.5,7.5,4.0,9.0,7.6,24.0,19.3581061,98.4405794
127,128,Hebi,China,50.2,90.6,79.7,59.4,49.4,32.6,23.4,23.3,25.5,34.9,53.9,60.6,67.5,35.7494986,114.2912899
128,129,Yigou,China,50.2,81.1,84.5,60.7,51.8,39.1,25.7,22.8,28.7,31.0,46.9,60.2,69.4,35.8310619,114.3205386
129,130,Nagpur,India,50.2,90.4,54.0,61.7,48.7,42.8,28.4,16.1,20.7,24.7,59.4,89.8,66.9,21.1498134,79.0820556
130,131,Hoan Kiem,Vietnam,50.2,86.8,73.2,59.0,44.5,35.6,32.8,29.5,33.0,37.2,51.0,74.1,62.7,21.0281683,105.8511514
131,132,Bekasi,Indonesia,49.9,34.1,22.9,39.6,38.0,71.5,76.9,76.6,60.4,51.4,46.8,47.2,36.6,-6.2349858,106.9945444
132,133,Ahmedabad,India,49.6,63.4,71.1,59.7,55.8,49.3,36.0,30.8,32.4,32.5,55.6,60.3,49.5,23.0215374,72.5800568
133,134,Shahecheng,China,49.5,82.0,71.7,60.8,47.5,34.1,24.3,25.1,23.9,33.5,54.5,58.7,77.4,36.9412659,114.502199
134,135,Durgapur,India,49.5,81.3,85.3,63.0,59.6,39.7,35.3,19.7,35.1,22.9,40.4,55.3,54.9,23.5350475,87.3380425
135,136,Pune,India,49.4,76.6,71.2,55.5,43.7,42.8,32.3,23.9,30.4,27.0,58.4,63.5,68.4,18.5213738,73.8545071
136,137,Ankleshwar,India,49.3,64.6,75.3,56.6,42.7,30.3,22.3,21.3,18.2,29.7,76.0,83.9,72.4,21.6293206,72.9945103
137,138,Navi Mumbai,India,49.3,123.2,98.8,72.6,43.4,21.8,20.6,14.0,15.1,20.2,58.6,52.2,54.5,19.0308262,73.0198537
138,139,Katunje,Nepal,49.1,79.9,80.4,71.7,87.3,47.4,30.2,19.9,18.6,21.2,27.3,46.1,64.5,27.3180062,87.8311699
139,140,Xinxiang,China,49.0,91.8,76.8,59.1,48.1,32.0,24.5,19.5,23.6,32.4,54.6,56.4,67.3,35.308611,114.051111
140,141,Doburji,India,49.0,64.0,46.9,32.0,46.1,42.0,28.5,27.8,38.2,35.4,48.7,79.7,95.3,31.7502755,74.8846471
141,142,Bisikala,India,48.9,94.8,84.5,70.6,115.6,32.1,24.0,19.5,23.8,11.3,13.5,41.3,38.7,25.406803,84.156219
142,143,Motihari,India,48.8,53.7,50.8,35.6,39.9,19.8,11.4,13.6,19.1,34.1,65.8,127.3,102.0,26.6506888,84.9114654
143,144,Remuna,India,48.8,99.3,56.0,48.5,45.6,26.0,25.2,13.6,16.7,13.4,51.7,83.5,89.8,21.5427309,86.8551803
144,145,Changji,China,48.7,156.7,142.6,50.9,20.3,16.8,13.9,12.5,12.6,11.3,23.1,37.1,84.6,44.3478012,86.6870066
145,146,Yanliang,China,48.6,96.1,80.0,55.4,56.7,27.0,22.6,22.2,21.6,25.6,39.3,57.6,86.8,34.6696781,109.2245785
146,147,Heze,China,48.5,105.5,69.6,55.4,43.4,29.5,24.8,18.4,23.4,34.0,54.1,49.4,71.1,35.2477266,115.4464761
147,148,Gorakhpur,India,48.5,58.8,36.7,43.7,39.3,51.1,43.8,32.4,34.3,37.1,56.6,85.6,57.6,26.6677977,83.3642334
148,149,Huangpi,China,48.4,99.0,67.9,63.8,48.2,33.2,28.4,20.8,27.8,27.4,52.9,49.5,57.6,31.0567528,114.3820173
149,150,Liaocheng,China,48.2,96.4,66.6,65.0,46.1,30.5,23.7,19.9,23.0,33.3,54.1,48.5,67.8,36.4441808,115.9642007
150,151,Yuncheng,China,48.2,104.0,84.0,55.2,44.4,27.2,23.7,23.4,23.2,25.0,42.6,47.2,77.1,35.218039,111.053715
151,152,Osh,Kyrgyzstan,48.2,134.4,104.4,51.8,33.6,15.1,13.6,15.8,18.9,23.7,33.2,48.2,88.9,40.1578662,73.3634952
152,153,Kaifeng,China,48.1,100.6,79.5,58.7,49.1,27.2,22.2,17.5,22.2,29.9,49.7,51.6,67.3,34.604167,114.497222
153,154,Zhoukou,China,48.1,113.8,72.4,53.3,46.9,29.2,22.3,13.1,21.2,24.7,53.8,51.3,72.9,33.808333,114.911944
154,155,Xinji,China,48.0,68.7,67.1,58.9,41.9,33.9,20.9,21.0,20.0,40.8,57.9,62.5,78.6,37.8837434,115.2537835
155,156,Xiangyang,China,48.0,104.2,78.7,54.9,47.4,31.4,24.7,21.1,24.7,24.5,39.2,52.5,70.7,32.010998,112.1163785
156,157,Weinan,China,48.0,105.8,94.9,55.9,58.3,25.8,18.1,19.4,19.9,24.9,40.1,46.9,75.1,34.5169112,109.4643291
157,158,Kiri Buru,India,48.0,82.8,60.2,81.8,63.9,41.1,36.7,16.2,24.5,23.0,39.4,51.1,54.3,22.0666701,85.249958
158,159,Churu,India,48.0,63.1,63.1,32.6,24.2,24.7,16.7,13.2,22.9,18.8,40.7,166.4,97.6,28.2047781,74.6912996
159,160,Murwara,India,47.9,122.7,65.4,47.2,40.2,33.7,26.5,19.7,22.7,22.3,55.1,100.7,73.6,23.8339621,80.392456
160,161,Xuchang,China,47.8,108.0,80.9,54.0,46.5,25.0,21.3,15.7,23.4,26.8,55.7,49.3,64.6,34.147778,113.714722
161,162,Yanta,China,47.8,92.2,65.8,56.4,42.9,31.3,24.0,23.1,24.1,36.0,54.2,49.1,66.4,34.2240127,108.9441972
162,163,Kolkata,India,47.8,98.2,54.6,44.5,42.7,27.6,24.8,13.1,31.2,20.1,50.5,80.8,85.9,22.5726459,88.3638953
163,164,Handan,China,47.7,76.5,71.4,58.2,46.9,32.4,23.8,22.8,24.7,34.5,53.6,55.8,72.7,36.6107711,114.4857072
164,165,Luohe,China,47.7,114.0,75.4,54.3,45.7,28.0,21.9,15.6,24.0,25.9,47.3,50.2,67.5,33.5826865,114.0107357
165,166,Shashi,China,47.7,119.3,82.4,53.2,42.8,31.8,21.5,17.7,25.3,23.0,38.3,49.6,66.5,30.3144274,112.2524983
166,167,Shangqiu,China,47.5,108.8,65.9,54.3,43.2,26.2,22.0,16.2,22.5,27.0,57.6,51.0,72.6,34.4168215,115.6507447
167,168,Moradabad,India,47.5,56.4,45.3,54.1,48.5,47.1,39.8,31.5,29.5,26.9,48.5,77.3,65.2,28.8796553,78.8095335
168,169,Yuci,China,47.3,59.6,85.3,55.6,51.4,34.8,27.9,25.5,27.9,36.1,47.5,43.7,73.4,37.617838,112.846727
169,170,Kodiyat,India,47.3,73.2,43.2,36.7,38.1,54.1,37.9,34.5,33.2,31.3,39.8,72.2,72.6,24.5824269,73.6129045
170,171,Igdir,Turkey,47.2,177.2,43.3,37.6,15.9,14.2,13.0,12.0,19.7,17.8,29.1,68.1,113.6,40.313278,32.679981
171,172,Wujiaqu,China,47.1,162.3,121.8,48.8,17.8,18.5,18.0,15.5,15.2,13.3,21.2,32.3,76.9,44.1654232,87.5402182
172,173,Jingzhou,China,46.9,117.6,81.3,53.6,41.6,30.8,21.1,16.8,24.7,23.5,35.4,48.7,66.4,30.3375612,112.2337264
173,174,Yangliuqing,China,46.9,66.8,66.3,64.1,40.7,33.7,23.7,25.2,22.7,39.8,56.9,50.1,70.8,39.1414621,116.9960349
174,175,Sawai Madhopur,India,46.8,68.2,68.2,40.9,30.3,27.8,37.5,43.1,37.1,21.1,50.3,93.5,66.0,26.1137182,76.4240637
175,176,Luoyang,China,46.7,88.5,88.8,55.5,46.5,30.7,24.1,22.8,27.4,30.5,39.8,44.1,61.6,34.6196539,112.4477046
176,177,Luancheng,China,46.5,68.9,72.0,57.8,43.0,30.1,20.6,21.3,22.5,40.0,52.2,58.2,74.0,39.7519063,118.6502236
177,178,Dhahran,Saudi Arabia,46.5,56.7,47.9,37.0,36.8,45.9,45.1,38.4,56.9,46.6,41.7,51.1,54.1,26.2966528,50.1202146
178,179,Bundi,India,46.4,21.1,21.1,21.1,21.1,20.3,32.3,55.9,32.7,15.9,39.4,91.3,86.5,25.4367659,75.7361471
179,180,Wuhan,China,46.3,94.1,65.5,56.9,41.5,33.7,27.9,18.4,27.7,24.5,50.8,48.7,66.7,30.5951051,114.2999353
180,181,Yangcun,China,46.3,59.3,67.8,74.0,46.1,37.1,26.9,27.0,26.9,37.0,50.8,39.5,62.1,31.8328462,105.6674622
181,182,Serilingampalle,India,46.3,48.7,49.9,46.4,47.7,36.9,39.0,38.6,51.4,42.6,69.0,46.5,33.0,17.4653297,78.3437434
182,183,Linshui,China,46.2,68.8,72.7,55.9,46.4,35.2,21.0,21.6,25.5,34.0,48.2,53.8,64.6,30.252604,106.982041
183,184,Wiang,Thailand,46.2,30.7,68.1,161.4,193.5,33.4,11.6,6.7,9.0,7.7,9.4,16.1,22.6,19.4986683,100.3243934
184,185,Jiaozuo,China,46.1,84.4,81.6,58.3,45.9,29.8,24.2,19.9,26.8,29.5,42.8,47.9,61.4,35.1375,113.143889
185,186,Ajmer,India,46.1,54.3,51.3,42.7,41.0,44.2,37.3,41.4,47.5,35.8,37.7,71.8,45.9,26.4691,74.639
186,187,Caidian,China,46.0,94.5,65.0,55.9,42.0,34.4,28.9,18.8,29.9,26.5,53.6,48.4,54.5,30.5389289,114.0821056
187,188,Jabalpur,India,46.0,102.9,59.9,43.7,39.2,31.6,25.3,18.0,23.1,23.2,49.0,84.4,54.0,23.1701522,79.9324505
188,189,Kanpur,India,46.0,74.5,46.1,40.1,43.5,37.0,33.9,23.1,27.1,26.8,50.6,79.4,70.2,26.4609135,80.3217588
189,190,Dushanbe,Tajikistan,46.0,64.4,38.5,24.2,38.4,33.5,35.5,41.7,33.1,51.2,44.7,64.4,92.0,38.5856814,68.760331
190,191,Dingtao,China,45.8,102.2,67.4,54.8,35.3,27.0,19.7,11.0,18.6,28.1,57.7,50.7,68.0,35.0758996,115.565062
191,192,Baghdad,Iraq,45.8,79.5,60.1,52.5,28.6,48.4,26.7,21.8,32.4,32.1,43.8,63.1,53.8,33.3061701,44.3872213
192,193,Xian,China,45.7,107.6,99.0,51.7,51.0,22.5,17.2,18.7,19.0,21.7,30.0,46.7,73.7,38.1904931,116.1191021
193,194,Bhopal,India,45.7,65.3,43.4,38.3,34.1,36.3,25.8,19.4,26.7,26.9,58.5,103.3,71.4,23.2584857,77.401989
194,195,Mae Ka,Thailand,45.5,20.4,98.2,163.3,140.3,32.7,10.0,5.9,11.4,6.5,8.1,18.1,23.5,19.0557304,99.9401186
195,196,Jining,China,45.3,93.7,66.0,58.7,44.5,29.8,24.3,18.0,22.9,26.2,44.2,46.4,66.1,35.4125047,116.5849266
196,197,Yuxia,China,45.2,102.0,82.9,51.8,51.5,22.8,17.7,17.1,18.8,23.2,26.9,50.4,81.0,34.0646714,108.625057
197,198,Nangong,China,44.9,78.1,60.8,51.7,39.0,28.8,17.6,14.4,20.5,36.6,58.6,51.7,71.6,37.3560772,115.3920309
198,199,Zhengzhou,China,44.8,97.5,80.0,54.0,48.3,26.3,22.0,17.8,22.2,26.0,36.2,45.5,61.1,34.7533392,113.6599983
199,200,Khadki,India,44.8,44.0,44.0,44.0,44.0,51.0,37.0,18.9,22.2,26.9,61.5,69.8,71.9,18.5681753,73.8507787
200,201,Jingmen,China,44.7,98.4,72.0,53.0,43.5,30.9,20.2,16.7,23.5,22.2,37.7,51.3,65.4,31.0375248,112.1937979
201,202,Qingnian,China,44.7,82.8,57.4,51.5,34.8,26.5,19.7,15.6,18.9,33.0,53.9,50.8,75.8,33.5717968,114.2523348
202,203,Kusdihra,India,44.7,84.6,50.0,42.3,46.6,41.6,39.2,19.4,26.3,23.3,31.7,62.5,71.2,24.8722,84.1021
203,204,Shijiazhuang,China,44.6,60.7,77.1,60.0,46.7,33.3,20.7,20.4,22.6,35.8,46.0,49.2,65.5,38.0429742,114.5088385
204,205,Nanyang,China,44.6,105.0,76.5,50.0,40.6,25.5,20.1,17.5,20.4,20.8,38.4,48.3,70.6,33.0010496,112.5292693
205,206,Xuzhou,China,44.6,76.4,52.5,54.9,39.8,30.5,27.8,19.8,24.3,34.3,49.8,51.8,69.2,34.2665258,117.1810431
206,207,Turpan,China,44.6,104.4,60.5,42.0,71.7,27.6,23.8,24.7,19.5,21.2,24.0,44.4,72.4,42.4561611,89.7283163
207,208,Mirpur Khas,Pakistan,44.6,94.6,63.4,32.1,24.3,21.0,17.1,17.9,23.1,29.3,47.4,125.0,129.2,25.5262817,69.0110617
208,209,Baoding Shi,China,44.5,55.2,72.6,64.1,45.8,34.9,22.3,19.3,21.2,34.0,48.6,50.7,67.0,38.8579735,115.490696
209,210,Taozhuang,China,44.5,78.8,53.1,58.2,44.5,34.4,28.0,22.6,26.0,34.9,43.8,46.2,62.5,32.8697544,120.149908
210,211,Dewas,India,44.5,60.5,41.1,44.8,49.5,36.2,26.1,14.5,26.9,28.8,59.5,79.1,67.6,22.8057498,76.2940408
211,212,Xingtai,China,44.4,68.2,69.8,55.3,43.1,29.9,19.6,20.4,21.5,33.8,47.2,53.1,72.4,37.0616519,114.499746
212,213,Banswara,India,44.4,57.8,57.8,33.7,33.4,26.7,45.9,33.3,31.5,33.4,54.6,73.7,80.1,23.4915046,74.3502172
213,214,Ivanovka,Kyrgyzstan,44.4,89.3,74.2,39.6,21.55,3.5,11.0,9.5,9.8,17.4,37.0,43.4,94.9,42.8874478,75.0850242
214,215,Yanzhou,China,44.3,89.3,62.4,58.9,36.0,29.0,24.5,19.1,23.9,27.2,40.8,46.7,66.9,36.602796,109.4873978
215,216,Linxi,China,44.2,55.5,58.0,64.1,43.8,36.9,30.0,26.5,27.8,36.9,43.5,41.1,57.6,43.6996968,118.0922273
216,217,Yibin,China,44.1,81.1,81.3,45.0,34.9,36.1,22.1,20.2,20.1,29.0,30.7,52.7,74.6,28.58689,104.718661
217,218,Muridke,Pakistan,44.1,94.0,59.0,42.9,27.4,25.0,23.3,24.1,23.2,26.5,27.6,45.0,136.4,31.8010863,74.2540999
218,219,Bayingolin Mongol,China,44.0,68.2,49.9,66.4,72.4,25.9,26.9,28.7,27.9,26.6,34.7,55.1,50.9,39.495586,87.9790569
219,220,Dingzhou,China,43.9,57.3,75.3,58.2,43.6,33.4,21.7,22.1,24.2,34.4,45.7,52.5,61.8,38.5112175,114.9970044
220,221,Zaozhuang,China,43.9,78.5,53.5,56.8,41.0,29.4,24.9,18.5,22.2,33.2,44.7,51.0,69.7,34.8108822,117.3178922
221,222,"Wiang Phang Kham,",Thailand,43.9,33.3,60.3,117.8,232.0,123.85,15.7,13.2,13.9,13.3,14.8,24.6,28.9,20.4186801,99.8846483
222,223,Sirsa,India,43.8,64.1,47.9,31.6,26.6,32.5,26.0,27.6,22.7,16.8,23.6,121.6,66.4,29.6063041,74.9036568
223,224,Mumbai,India,43.8,85.5,77.6,61.0,34.9,21.4,17.1,14.6,16.5,20.4,59.7,58.5,60.2,19.054999,72.8692035
224,225,Sikar,India,43.8,32.3,32.3,32.3,29.5,34.5,18.4,20.5,23.4,16.3,36.4,121.7,102.1,27.6625058,75.0279905
225,226,Bali,India,43.8,98.3,61.9,54.2,38.7,25.0,24.2,10.9,30.7,17.9,35.4,69.4,73.2,25.1895706,73.2905263
226,227,Jakarta,Indonesia,43.8,20.6,19.2,31.2,28.4,49.8,48.7,55.3,58.3,53.0,61.1,53.0,44.3,-6.1754049,106.827168
227,228,Huaibei,China,43.7,79.5,56.7,58.2,43.4,27.7,22.9,15.8,22.2,26.1,48.8,53.0,69.7,33.9566098,116.7928916
228,229,Hanoi,Vietnam,43.7,73.8,46.1,54.4,47.3,33.8,27.0,22.0,28.2,30.8,40.7,58.6,61.3,21.0283334,105.854041
229,230,Dubai,United Arab Emirates,43.6,25.0,32.5,39.8,35.6,33.8,40.9,59.9,61.5,59.3,52.4,32.7,48.6,25.0742823,55.1885387
230,231,Waluj,India,43.5,62.6,52.0,45.1,34.7,32.0,28.1,15.8,18.8,38.1,49.4,68.3,69.7,19.8459528,75.2423572
231,232,Pingdingshan,China,43.4,92.2,76.0,49.6,44.0,28.6,21.4,16.7,22.7,25.0,35.2,41.3,66.4,33.7419956,113.3002154
232,233,Binzhou,China,43.4,72.5,63.8,56.0,41.6,31.3,23.8,23.5,22.6,31.6,40.9,44.3,66.6,37.3821206,117.9647262
233,234,Dezhou,China,43.4,78.2,58.0,55.7,41.9,28.9,19.9,21.2,19.4,31.8,48.0,47.1,70.5,37.4363704,116.3534091
234,235,Zigong,China,43.4,83.4,75.5,42.7,29.1,30.4,17.7,16.0,21.2,32.1,37.8,55.5,77.1,29.2995746,104.6928392
235,236,Zibo,China,43.3,72.7,60.8,54.1,42.8,33.4,23.4,20.4,24.3,36.1,38.8,42.1,68.5,36.8129564,118.0488401
236,237,Bageshwori,Nepal,43.3,72.3,72.6,69.1,80.9,38.5,25.8,15.4,14.4,17.1,24.0,39.5,51.5,28.0655257,81.6279868
237,238,Hengshui Shi,China,43.2,74.2,59.8,53.9,39.4,27.7,18.3,18.5,16.8,31.8,50.9,52.7,74.4,37.7364305,115.6677229
238,239,Narayani,Nepal,43.2,49.2,66.1,84.2,99.5,43.2,31.0,19.6,19.9,21.0,30.9,46.5,67.7,27.551037,84.0046406
239,240,Xiaogan,China,43.1,102.1,66.1,57.2,35.9,26.2,19.9,13.6,19.6,17.3,44.1,45.2,67.6,31.176413,113.922434
240,241,Tianjin,China,43.1,59.3,59.4,63.7,41.8,32.9,22.7,24.3,24.0,34.0,50.0,42.2,61.3,39.3032619,117.4163641
241,242,Pithampur,India,43.1,70.0,36.2,38.1,36.9,24.4,27.1,22.9,25.7,29.9,48.2,74.1,76.5,22.6105576,75.6790283
242,243,Coimbatore,India,43.0,54.9,48.9,43.4,41.8,39.4,24.6,22.8,27.1,19.9,63.2,49.8,88.1,11.0018115,76.9628425
243,244,Laiwu,China,42.9,72.0,59.8,59.1,40.9,29.0,24.0,17.7,20.4,30.9,40.3,46.7,73.4,36.2150252,117.6698329
244,245,Suzhou,China,42.8,75.9,55.3,57.3,38.2,27.5,20.5,14.1,21.2,25.4,48.3,51.8,68.0,31.311123,120.6212881
245,246,Botou,China,42.8,67.4,55.1,49.7,37.6,29.3,19.3,20.0,18.3,34.2,49.1,52.4,71.3,38.0764217,116.5696393
246,247,Tianchang,China,42.7,56.5,84.5,59.2,46.4,32.1,22.3,23.1,27.9,32.5,38.3,41.6,51.8,32.8155558,119.0155138
247,248,Patiala,India,42.7,58.5,48.5,31.9,34.8,34.2,25.7,20.9,24.8,21.4,50.7,97.5,64.6,30.2092777,76.3397231
248,249,Nang Lae,Thailand,42.7,21.7,46.7,106.7,116.3,25.3,7.1,6.55,6.0,4.9,5.4,5.4,5.4,19.9941292,99.8646396
249,250,Linyi,China,42.6,72.7,56.6,59.8,40.2,30.9,21.6,16.9,17.5,26.3,42.5,50.3,72.5,35.1032403,118.3506988
250,251,Nanding,China,42.6,76.2,62.8,51.7,40.5,29.1,20.7,20.9,24.8,36.3,37.2,40.1,68.1,24.873,105.417
251,252,Taian,China,42.6,75.9,61.6,56.7,43.8,28.4,21.3,17.4,20.9,29.3,41.6,43.1,68.7,41.3785479,122.4268343
252,253,Ambala,India,42.6,63.4,47.8,35.3,26.0,45.2,24.8,21.3,21.8,31.9,55.4,78.2,59.1,30.3843674,76.770421
253,254,Kalyan,India,42.4,73.3,73.5,62.3,41.2,24.6,18.6,31.7,8.5,17.4,36.0,45.7,55.8,19.2396742,73.1366482
254,255,Islamabad,Pakistan,42.4,70.4,47.5,32.4,21.2,21.5,27.8,23.3,31.9,31.4,41.2,66.7,93.6,33.6938118,73.0651511
255,256,Indore,India,42.3,36.6,33.5,25.3,23.1,22.1,27.4,27.9,30.8,32.6,63.6,102.0,80.5,22.7203616,75.8681996
256,257,Lanzhou,China,42.2,64.9,54.0,52.4,55.2,35.3,27.5,22.7,25.3,27.5,34.4,48.1,58.4,36.474436,103.733224
257,258,Suizhou,China,42.2,97.7,60.0,53.3,39.0,30.2,21.8,18.4,22.5,20.3,39.7,43.8,56.2,31.920921,113.465844
258,259,Baoji,China,42.2,79.5,85.3,51.4,52.7,24.3,16.8,18.1,19.0,24.3,26.7,46.0,70.2,34.3609713,107.2322378
259,260,Taiyuan,China,42.2,52.5,74.3,53.9,50.7,33.0,23.7,22.2,25.4,33.3,41.1,36.9,59.3,37.870009,112.5452739
260,261,Suqian,China,42.0,68.9,50.8,58.1,40.0,32.4,27.7,21.1,22.3,28.6,38.9,48.9,63.4,33.9644701,118.2696994
261,262,Zhoucun,China,42.0,83.8,59.1,45.8,33.2,30.7,21.1,18.1,21.4,34.1,41.0,43.2,69.6,36.8029113,117.8639989
262,263,Renqiu,China,41.9,56.9,64.2,55.4,38.9,31.3,20.1,19.3,18.7,34.8,49.6,48.4,66.1,38.7063767,116.1062203
263,264,Xinyang,China,41.9,101.4,65.9,54.7,43.4,27.9,20.5,15.0,20.1,18.1,32.9,39.5,60.7,32.075,114.853333
264,265,Deyang,China,41.9,81.3,63.0,42.8,36.9,30.3,26.2,23.9,19.2,21.8,30.7,47.5,77.5,31.1244028,104.39013
265,266,Fuyang,China,41.7,90.0,57.8,59.5,40.3,25.0,17.8,13.2,20.3,23.8,40.5,44.6,67.0,32.8926763,115.8090001
266,267,Sanmenxia,China,41.7,80.5,85.2,48.4,47.2,25.3,20.9,21.2,22.9,21.5,25.5,36.7,66.1,34.4228647,111.0489969
267,268,Urumqi,China,41.7,112.2,125.5,47.7,19.4,15.1,15.1,13.3,13.6,14.0,22.1,36.9,65.4,43.8244074,87.6139038
268,269,Jinzhong,China,41.5,55.5,76.1,52.2,45.5,29.0,23.7,20.8,22.6,31.0,41.0,37.2,63.7,37.6866796,112.7383414
269,270,Alwar,India,41.5,64.3,40.1,32.2,31.8,31.9,32.0,27.5,25.0,25.2,44.5,83.6,59.3,27.4140048,76.6170387
270,271,Muragacha,India,41.5,79.5,64.1,48.1,59.6,36.8,31.2,14.4,25.0,20.5,36.7,52.8,45.9,23.529854,88.4076992
271,272,Bathinda,India,41.4,29.6,34.1,27.9,45.4,48.8,40.9,17.8,17.1,20.2,45.2,112.3,52.3,30.1794813,75.0471098
272,273,Zhumadian,China,41.3,105.0,65.3,51.7,40.4,25.1,18.4,13.1,19.3,20.8,34.9,39.8,59.3,33.0115818,114.0164565
273,274,Kaimla,India,41.3,25.1,14.6,17.1,19.5,22.8,29.0,31.7,54.2,43.1,50.8,106.8,85.7,29.5054855,76.9973431
274,275,Cangzhou Shi,China,41.2,60.7,55.9,50.0,36.3,30.1,21.4,21.3,19.8,32.9,47.3,48.6,66.9,38.3042796,116.8511597
275,276,Bozhou,China,41.0,91.8,55.9,54.3,40.8,23.6,20.0,11.9,19.3,27.1,50.9,41.9,54.8,33.8490794,115.7730968
276,277,Leshan,China,41.0,78.1,71.0,36.2,30.3,29.8,22.4,21.4,19.5,26.5,29.2,46.7,79.1,29.2233495,103.5966083
277,278,Bara Bazar,India,41.0,79.1,50.2,36.7,31.8,27.5,22.1,13.0,14.4,15.8,56.5,90.5,88.5,22.5801792,88.3528098
278,279,Kathmandu,Nepal,41.0,67.9,60.4,66.0,77.0,40.6,26.7,14.0,15.3,17.2,23.1,34.5,51.0,27.708317,85.3205817
279,280,Mae Kon,Thailand,40.9,39.8,72.9,123.4,128.2,31.0,11.6,6.0,9.2,7.9,9.2,22.0,27.3,18.0754675,100.2180135
280,281,Salodi,India,40.8,53.8,36.8,25.6,32.0,28.3,24.7,22.2,30.3,27.0,47.9,91.8,65.2,26.4120502,72.8336477
281,282,Guangan,China,40.7,92.1,62.7,38.0,35.1,29.3,21.8,19.7,22.4,24.4,24.0,42.8,73.8,33.2235908,112.9844571
282,283,Yanamalakuduru,India,40.7,100.8,74.7,70.3,84.7,35.6,22.0,14.2,23.0,19.5,23.7,31.7,43.1,16.4781672,80.6726933
283,284,Hosur,India,40.7,49.9,72.2,56.3,55.0,37.3,28.1,20.1,32.1,19.5,46.0,32.9,33.7,12.7183361,77.8229481
284,285,Huanggang,China,40.4,74.8,57.7,47.4,32.3,27.3,20.0,18.1,25.7,23.5,52.6,44.0,58.9,30.4560187,114.8673226
285,286,Changde,China,40.4,108.8,63.6,38.2,33.9,27.4,19.2,15.0,25.4,23.2,33.1,38.6,60.5,29.034552,111.6928724
286,287,Neijiang,China,40.4,81.5,70.7,41.6,30.5,32.2,21.4,17.8,19.6,25.6,30.2,44.4,67.8,29.5827261,105.054491
287,288,Imphal,India,40.4,59.0,53.9,60.1,33.5,29.5,23.45,17.4,11.350000000000001,5.3,21.3,30.6,34.2,24.7991162,93.9364419
288,289,Jodhpur,India,40.4,67.5,75.4,40.1,30.5,26.9,18.9,16.6,19.8,17.4,32.2,79.7,64.3,26.2967719,73.0351433
289,290,Ghandinagar,India,40.3,52.4,61.5,43.1,47.0,31.5,27.4,26.6,28.8,27.5,47.5,52.0,40.8,9.6311246,76.5254446
290,291,Buhe,China,40.2,58.5,58.5,58.5,45.7,36.4,26.3,22.0,30.9,29.3,43.8,54.8,65.4,30.287567,112.229788
291,292,Yangquan,China,40.2,49.9,76.5,53.6,46.5,29.8,23.0,21.6,25.3,34.4,36.6,35.2,51.0,38.0935972,113.5265601
292,293,Jinchang,China,40.1,75.8,50.2,47.2,42.4,28.2,22.0,19.6,21.1,21.9,40.9,42.2,68.2,38.449693,102.058389
293,294,Hangu,China,40.1,52.4,57.1,66.3,39.8,31.1,24.5,25.4,22.8,31.1,41.2,36.2,51.2,29.5223,106.367
294,295,Prayagraj,India,40.1,61.2,34.3,28.6,21.0,21.3,18.4,25.4,34.9,34.4,62.4,88.8,50.2,25.4381302,81.8338005
295,296,Sudal,Nepal,40.1,67.3,67.25,67.2,78.9,41.4,28.7,19.3,20.4,22.6,30.2,40.8,51.6,27.6769722,85.4803234
296,297,Pong Yang Khok,Thailand,40.1,44.5,88.0,99.2,104.9,35.4,9.8,5.4,11.5,7.0,10.7,20.2,29.4,18.2802118,99.3836917
297,298,Hechuan,China,40.0,82.5,69.7,38.1,32.4,32.5,24.8,19.8,21.8,28.3,28.9,50.7,70.0,30.114851,106.307925
298,299,Wuwei,China,39.9,58.6,42.5,62.7,51.2,44.6,35.1,27.7,23.8,23.6,24.5,43.1,41.1,37.928881,102.6359886
299,300,Yiyang,China,39.9,97.7,66.8,41.1,27.0,25.4,18.4,13.0,21.0,23.9,39.3,42.6,63.4,28.438707,112.056694
300,301,Hyderabad,India,39.9,56.8,54.1,48.6,42.1,35.5,24.2,18.2,27.3,19.0,43.2,51.5,58.9,17.360589,78.4740613
301,302,Kuwait City,Kuwait,39.9,58.2,35.3,37.1,27.9,33.2,32.5,27.7,39.4,37.9,37.5,53.0,58.5,29.3796532,47.9734174
302,303,Nai Wiang,Thailand,39.9,42.4,76.7,102.0,124.3,70.3,16.3,13.5,15.8,12.2,13.5,22.8,30.4,16.6811599,102.2957362
303,304,Luzhou,China,39.8,80.5,71.1,40.2,27.7,33.3,18.5,16.1,15.8,21.9,24.5,53.3,76.5,28.5297899,105.5382725
304,305,Xinzhou,China,39.6,58.9,69.1,44.9,42.0,27.4,20.5,23.0,25.1,31.0,32.9,30.8,69.6,38.76502,112.385805
305,306,Jaisalmer,India,39.6,10.9,10.9,10.9,10.9,20.8,24.8,22.6,17.5,19.5,30.6,103.5,81.5,26.9116615,70.9124888
306,307,Bandung,Indonesia,39.6,23.0,17.8,31.2,30.2,43.3,43.1,37.3,52.7,42.5,53.1,49.8,49.1,-6.9215529,107.6110212
307,308,Jhalawar,India,39.4,34.8,34.8,34.8,25.6,24.7,15.5,16.4,31.6,26.8,39.6,95.1,80.4,24.3132368,76.5221078
308,309,Wiang Nuea,Thailand,39.4,33.8,67.1,144.8,134.8,28.4,12.0,7.0,9.4,6.8,9.1,13.7,21.8,19.9095987,99.9256566
309,310,Manama,Bahrain,39.2,11.1,11.1,2.2,33.4,28.5,42.6,42.1,56.4,46.9,36.5,31.4,39.5,26.2235041,50.5822436
310,311,Bengbu,China,39.2,62.3,47.1,49.5,36.2,31.0,26.3,16.4,21.4,25.4,40.0,48.9,66.2,32.9176422,117.3825673
311,312,Hecun,China,39.2,52.6,72.0,49.0,40.2,29.2,23.9,24.3,29.9,34.9,33.5,34.3,41.8,28.666737,118.5308171
312,313,Yichang,China,39.0,99.7,78.1,40.1,31.4,24.6,15.7,13.5,18.5,16.6,22.8,36.8,68.9,30.6941332,111.2803512
313,314,Chengdu,China,39.0,73.8,60.6,38.3,32.6,30.4,23.1,20.9,17.0,24.0,28.9,44.5,72.1,30.6598628,104.0633717
314,315,Ratlam,India,39.0,53.4,53.0,37.5,35.3,28.8,24.5,21.9,24.7,23.5,42.2,71.6,49.9,23.50222,74.9551534
315,316,Jinan,China,38.9,72.9,56.0,50.4,40.7,27.9,18.4,16.9,20.5,30.1,33.5,35.9,61.0,36.6519754,117.1138479
316,317,Siliguri,India,38.9,84.4,61.3,46.5,40.1,30.5,26.1,18.5,22.7,19.9,28.9,43.9,47.4,26.7164127,88.4309916
317,318,Tangshan,China,38.8,47.6,54.6,64.0,36.9,32.4,26.8,23.3,23.2,31.5,40.5,35.0,50.3,39.6295951,118.1738712
318,319,Firozabad,India,38.8,52.5,34.9,27.5,20.1,27.6,40.3,26.3,27.9,20.6,49.2,72.3,64.4,27.1941954,78.4604956
319,320,Loudi,China,38.7,79.0,58.4,43.2,31.6,29.1,21.7,16.6,24.6,21.3,35.5,42.0,61.7,27.6995215,111.9890658
320,321,Zhongwei,China,38.7,51.4,45.5,45.7,77.4,35.4,29.7,26.4,25.9,25.2,25.0,35.2,43.4,36.985074,105.496587
321,322,Shaoyang,China,38.5,72.1,54.9,44.7,31.6,28.5,22.2,17.9,24.8,26.0,35.4,44.1,61.5,26.9443424,110.9631102
322,323,Korla,China,38.5,61.1,45.9,56.1,58.7,22.3,21.9,24.6,21.7,22.9,32.3,50.7,47.7,41.673238,85.716234
323,324,Tokmok,Kyrgyzstan,38.5,102.8,85.9,39.4,26.6,14.7,13.8,11.0,11.7,18.1,35.4,42.7,59.1,42.8373462,75.2953881
324,325,Osmaniye,Turkey,38.5,88.9,68.7,30.5,16.1,17.6,20.5,19.1,25.7,25.4,23.6,33.8,95.3,37.2517882,36.2993502
325,326,Weifang,China,38.4,62.5,53.2,50.8,36.3,28.2,19.5,17.0,18.6,28.6,37.7,39.4,66.4,36.7071591,119.1557441
326,327,Ili,China,38.4,126.2,73.1,28.4,20.7,17.6,19.3,18.2,17.8,17.0,27.5,37.1,55.5,43.913814,81.3271885
327,328,Huainan,China,38.3,72.9,54.6,53.8,37.4,27.5,20.4,12.8,18.7,22.3,34.8,43.2,61.0,32.5866826,117.0130019
328,329,Ezhou,China,38.3,76.1,59.1,47.7,32.3,26.9,18.8,10.8,19.0,16.6,46.9,42.5,61.0,30.3925379,114.8898988
329,330,Jinzhou,China,38.3,52.2,54.9,66.6,38.7,30.6,25.4,21.0,18.3,23.6,39.0,36.8,52.2,41.494444,121.615278
330,331,Zhangqiu,China,38.3,68.3,55.6,48.8,39.6,28.7,18.5,16.0,19.8,31.3,33.4,38.1,60.6,36.6811534,117.5201284
331,332,Datong,China,38.2,68.7,48.2,51.4,40.8,30.7,22.7,11.2,18.4,21.6,35.7,43.8,66.0,40.0919817,113.2951122
332,333,Balyqshy,Kazakhstan,38.2,58.4,53.0,39.7,44.1,48.5,39.6,38.7,24.1,19.5,24.7,31.6,40.2,47.0811344,51.8774176
333,334,Abu Dhabi,United Arab Emirates,38.2,25.4,26.8,37.1,29.6,26.9,35.2,47.8,54.6,51.5,50.1,30.1,41.7,24.4538352,54.3774014
334,335,Hengyang,China,38.1,78.3,57.6,42.7,25.5,32.1,19.6,15.9,21.9,22.8,38.4,42.6,60.2,26.8971308,112.5666191
335,336,Uppal Kalan,India,38.1,48.2,34.2,32.1,37.1,38.7,37.0,33.4,41.0,36.8,42.7,41.8,35.7,30.9210023,75.8346029
336,337,Nong Jom,Thailand,38.1,34.5,55.7,98.1,121.9,23.8,10.1,5.1,11.1,7.1,9.5,17.9,23.8,18.8473633,99.0138227
337,338,Talat Khwan,Thailand,38.1,34.4,54.1,103.4,129.9,29.2,10.4,6.3,12.2,8.8,9.9,21.0,29.1,18.8347567,99.0864602
338,339,Fengrun,China,38.0,44.8,52.5,57.2,33.3,32.2,26.2,25.2,18.6,31.5,41.8,37.7,55.8,39.8314542,118.1555637
339,340,Zhenjiang,China,38.0,54.0,44.0,48.1,41.7,33.4,25.7,18.5,23.1,24.7,35.9,43.6,61.4,32.1891959,119.4200069
340,341,Meishan,China,38.0,74.6,62.7,35.0,26.3,25.6,16.4,14.8,16.3,24.0,29.8,49.5,78.4,29.9866838,103.7790009
341,342,Vemuluru,India,38.0,74.8,44.0,45.6,27.8,26.4,23.9,8.0,17.0,13.8,45.6,52.7,75.7,16.9908999,81.7299772
342,343,Langfang,China,37.9,47.0,58.6,56.2,36.6,29.5,19.2,17.7,17.3,31.2,44.5,40.4,54.6,39.5302055,116.6926134
343,344,Bihar Sharif,India,37.9,161.6,49.5,36.6,32.1,28.5,20.3,10.8,13.0,15.8,22.5,54.8,44.7,25.193859,85.5208617
344,345,Taixing,China,37.8,53.2,42.3,45.7,39.5,32.5,27.3,16.0,21.6,26.0,40.1,43.4,62.8,32.1684583,120.0165362
345,346,Hanting,China,37.7,59.5,50.3,48.7,37.3,27.9,19.7,19.5,19.8,29.0,36.3,39.5,63.9,36.7553782,119.2054018
346,347,Rajsamand,India,37.7,30.7,30.7,30.7,24.3,21.5,25.9,40.7,39.7,19.3,24.7,71.5,75.0,25.2892459,73.8241077
347,348,Nong Hoi,Thailand,37.7,45.4,72.6,108.9,104.2,32.1,11.8,7.8,13.0,9.0,8.8,15.8,22.6,18.7571293,99.007621
348,349,Tangjiazhuang,China,37.6,45.0,50.2,57.1,32.1,32.2,28.1,21.3,24.7,33.9,42.3,37.6,46.6,39.7397155,118.4561611
349,350,Xiangtan,China,37.6,79.5,60.3,47.5,25.5,28.1,18.8,15.2,20.9,19.1,37.3,41.5,58.6,27.681864,112.626292
350,351,Zhuzhou,China,37.6,78.1,57.1,45.9,26.4,28.7,19.0,14.6,22.0,20.3,38.6,41.4,59.5,27.049812,113.55087
351,352,Huai'an,China,37.6,60.4,43.0,50.8,39.4,31.7,22.8,14.0,17.1,21.6,40.6,47.1,59.3,33.5978169,119.0196971
352,353,Depok,Indonesia,37.6,20.1,13.3,23.2,22.3,32.8,22.7,25.4,89.8,60.7,63.2,49.3,51.8,-6.40719,106.8158371
353,354,Doha,Qatar,37.6,43.0,32.0,30.7,27.3,27.1,36.4,36.4,49.1,42.8,42.5,35.8,47.0,25.2856329,51.5264162
354,355,Shizuishan,China,37.5,58.2,46.5,48.9,55.2,33.7,19.3,19.9,21.2,23.7,29.7,34.6,57.7,38.9868531,106.3771974
355,356,Tongchuan,China,37.5,64.0,68.3,44.8,47.6,21.1,18.6,18.9,18.4,22.1,28.3,41.0,59.2,34.8972729,108.9403845
356,357,Doi Saket,Thailand,37.5,44.9,64.0,103.7,107.9,31.0,10.5,6.2,11.4,7.9,10.1,22.4,32.1,18.9319785,99.2522662
357,358,Nam Phrae,Thailand,37.5,27.9,48.9,106.1,132.9,28.0,8.6,4.6,8.7,5.5,10.6,18.1,18.1,19.3526384,99.1752006
358,359,Karaganda,Kazakhstan,37.4,77.8,72.2,55.3,28.8,35.3,17.8,18.6,16.0,28.6,25.7,37.6,35.2,49.1767322,74.1811272
359,360,Ho,Vietnam,37.4,31.4,38.2,29.2,28.7,30.1,33.0,31.8,39.0,43.9,46.1,55.0,41.8,10.8961717,106.7622989
360,361,Jijiang,China,37.3,73.9,53.8,39.0,30.1,33.7,22.9,17.3,17.7,20.6,25.9,46.5,66.0,29.2807701,106.263488
361,362,Jincheng,China,37.3,57.9,71.7,45.8,38.3,28.0,21.5,17.4,23.9,26.1,41.8,33.9,42.1,35.4913132,112.8454497
362,363,Borivli,India,37.3,72.8,63.0,53.4,31.4,20.2,15.0,12.2,12.0,16.4,40.6,51.5,60.4,19.2438163,72.8503476
363,364,Pa Sak,Thailand,37.3,38.5,57.4,98.8,122.1,30.9,9.8,6.0,10.5,7.0,8.9,18.2,26.1,18.5373688,99.0369977
364,365,Chiang Khong,Thailand,37.3,28.7,68.9,101.7,195.1,133.36666666666667,71.63333333333334,9.9,8.1,9.6,9.1,8.3,9.9,20.1778538,100.3840169
365,366,Hendek,Turkey,37.3,51.3,41.4,30.1,26.0,35.7,36.8,34.6,40.1,35.9,41.8,29.7,43.8,40.7955034,30.7452727
366,367,Changsha,China,37.2,82.6,58.8,45.8,27.4,27.2,18.1,14.0,21.4,18.4,34.0,40.0,58.5,28.1450774,113.2384362
367,368,Dawukou,China,37.2,66.3,47.7,44.5,43.8,29.5,16.1,14.5,16.9,26.1,30.0,42.4,68.6,39.0186857,106.3630325
368,369,Dongying,China,37.2,58.9,53.9,52.4,36.0,28.1,20.2,20.4,18.6,24.4,36.4,35.6,59.3,37.4334738,118.6689349
369,370,Shengli,China,37.2,58.6,54.3,50.7,36.5,28.5,20.1,20.2,20.2,26.6,35.2,35.7,58.0,31.1327366,115.4625326
370,371,Al Shahaniyah,Qatar,37.2,29.4,25.4,24.7,30.2,36.5,40.8,46.8,57.8,45.4,40.1,33.5,33.5,25.3727394,51.2328844
371,372,Mianyang,China,37.1,78.5,49.6,33.0,31.2,27.9,23.4,22.5,20.3,21.4,29.0,41.9,64.4,31.4602714,104.7160723
372,373,Jhansi,India,37.1,39.6,19.5,15.4,20.1,41.9,35.3,34.6,33.4,30.2,53.1,73.7,45.9,25.529855,78.6527802
373,374,Suihua,China,37.0,77.9,64.6,47.9,56.4,20.8,12.2,11.7,7.9,11.0,28.7,48.9,56.8,46.880466,126.808707
374,375,Nan,Thailand,37.0,36.6,74.6,100.0,96.8,34.2,13.2,10.6,17.1,9.5,9.0,14.5,19.7,18.7778874,100.773732
375,376,Huangshi,China,36.9,71.9,58.5,44.8,29.6,26.2,19.4,12.5,18.8,17.2,43.5,40.7,56.4,30.2024971,115.0334144
376,377,Changzhi,China,36.9,53.8,69.7,46.7,37.6,26.8,22.2,19.4,23.6,28.2,37.7,30.7,46.3,36.1830167,113.0992929
377,378,Nashik,India,36.9,56.0,39.6,43.5,28.5,25.6,21.6,12.3,17.2,20.3,54.9,64.6,58.8,20.0112475,73.7902364
378,379,Mae Rim,Thailand,36.9,119.7,119.7,119.7,140.7,32.0,11.1,6.5,11.7,6.6,8.8,16.1,23.7,18.9538975,98.8797631
379,380,Tha Sala,Thailand,36.9,36.4,50.2,83.6,90.9,23.3,8.4,5.8,8.7,6.4,9.6,18.9,26.2,8.7060315,99.8956014
380,381,Solapur,India,36.8,49.6,35.7,40.3,28.9,35.3,37.5,17.9,24.2,21.1,52.6,56.7,42.3,17.8499067,75.2763203
381,382,Xinpu,China,36.6,61.2,42.1,49.1,35.7,26.8,19.3,14.9,14.3,22.1,37.3,48.0,64.9,29.6846858,111.3782523
382,383,Dongling,China,36.6,49.5,52.4,52.4,48.8,27.0,22.1,20.3,16.3,20.4,40.3,38.5,50.6,41.7511576,123.5931891
383,384,Rohta,India,36.5,52.2,17.2,14.3,14.7,19.3,35.9,27.7,38.1,41.6,50.2,66.8,47.0,30.3809834,76.1878252
384,385,Lianshan,China,36.3,51.2,52.0,62.3,35.5,28.9,24.2,21.7,20.3,22.1,32.9,35.0,48.2,24.5730213,112.0885277
385,386,Wuzhong,China,36.3,61.1,49.0,46.6,68.4,29.7,19.4,19.4,17.4,22.1,26.7,30.7,46.0,37.4922984,106.5151923
386,387,Nanchong,China,36.3,77.3,55.5,32.5,31.0,28.7,21.2,20.8,18.0,22.1,27.7,39.6,59.3,31.210219,106.231735
387,388,Vasai,India,36.3,67.8,57.5,46.7,31.7,19.4,9.8,7.9,10.0,15.1,54.7,56.3,55.8,19.3428238,72.805441
388,389,Trichur,India,36.2,52.6,57.8,62.5,32.6,20.1,25.6,26.7,29.1,30.5,30.5,30.6,30.5,10.5161402,76.2084616
389,390,Yudong,China,36.1,77.6,53.4,35.3,28.1,29.8,20.5,17.6,19.1,21.7,26.1,40.7,64.0,32.0154098,121.3552569
390,391,Tha Wasukri,Thailand,36.1,51.6,63.6,63.7,60.7,31.5,14.2,12.1,20.1,16.0,24.2,33.1,40.5,14.3604146,100.5536503
391,392,Yongchuan,China,36.0,69.8,60.9,37.9,27.7,30.5,17.6,15.8,16.7,22.8,25.7,44.9,63.1,29.29285,105.870081
392,393,Saugor,India,36.0,74.3,32.6,28.1,27.9,22.2,20.6,9.7,14.8,15.4,39.1,74.1,69.0,23.8477612,78.7433318
393,394,Sangareddy,India,36.0,44.1,43.6,38.9,45.2,41.9,25.3,25.2,31.2,34.9,34.4,29.9,26.4,17.8684342,77.8227189
394,395,Hushitai,China,35.9,45.6,53.6,55.2,43.1,25.5,19.6,20.6,18.6,21.9,38.5,40.6,50.8,41.9440401,123.5020458
395,396,Pratapgarh,India,35.8,24.0,24.0,24.0,22.3,21.3,24.0,27.4,32.6,26.3,37.4,69.0,69.6,25.75,81.75
396,397,Shangzhi,China,35.6,77.4,61.5,50.4,47.5,21.3,13.7,14.6,9.6,12.0,22.3,38.7,57.7,45.2133989,127.9634816
397,398,Dharwad,India,35.6,53.7,56.4,47.3,32.2,18.5,8.7,5.6,11.4,16.6,49.4,43.3,45.7,15.3707296,75.1332867
398,399,Serang,Indonesia,35.6,10.4,17.7,19.6,17.1,44.0,41.5,40.0,67.4,59.1,48.5,34.7,25.8,-6.1169662,106.1518079
399,400,Jiangyan,China,35.5,64.7,42.0,48.3,34.5,27.8,23.4,17.8,19.1,20.2,31.6,43.6,54.6,32.5112693,120.1231831
400,401,Yangzhou,China,35.5,54.9,43.4,48.4,37.6,29.5,22.3,17.1,20.3,20.7,30.1,39.9,59.1,32.3968554,119.4077658
401,402,Yongzhou,China,35.4,64.6,52.8,42.1,27.6,26.1,21.6,16.9,22.2,26.2,36.3,39.2,50.2,25.781344,111.6979977
402,403,Changzhou,China,35.4,49.8,40.8,42.3,37.5,30.6,24.1,14.0,18.4,22.5,37.0,43.1,62.3,31.8122623,119.9691539
403,404,Neo,Vietnam,35.4,53.0,37.3,24.4,26.1,25.9,25.0,32.2,32.3,37.7,40.7,50.2,43.2,22.9114425,105.6755339
404,405,Wuhu,China,35.3,57.6,47.8,40.3,34.2,28.9,22.8,14.9,21.2,21.3,34.0,40.0,60.5,31.1800568,118.2141777
405,406,Nhu Quynh,Vietnam,35.3,18.6,21.6,29.2,21.7,22.5,18.0,42.0,44.1,42.2,53.6,77.4,40.6,10.5288751,106.4232295
406,407,Yueyang,China,35.2,82.3,51.7,40.5,29.1,25.2,18.8,14.7,23.6,20.9,35.1,34.6,47.3,29.060703,113.348653
407,408,Bhilai,India,35.2,47.3,41.9,32.9,24.0,27.3,23.2,7.6,25.8,16.2,50.5,61.1,68.1,21.2120677,81.3732849
408,409,Kollam,India,35.2,36.6,26.7,39.2,37.7,38.7,29.8,33.4,33.5,18.1,37.3,42.4,45.3,8.8870815,76.5907017
409,410,Kashipur,India,35.2,55.7,55.7,38.8,30.066666666666663,21.333333333333332,12.6,11.2,16.4,19.4,54.3,48.3,48.6,29.2117573,78.9617306
410,411,Linxia,China,35.1,89.4,63.0,47.0,42.7,21.8,19.0,15.6,16.5,14.9,15.6,30.5,44.7,35.7003215,103.2791334
411,412,Taizhou,China,35.1,57.6,37.9,45.3,35.4,30.3,25.0,17.1,19.1,20.7,32.7,39.4,57.3,28.6581723,121.4163876
412,413,Tieling,China,35.1,46.6,53.7,53.6,49.3,27.0,19.0,17.5,12.9,17.8,35.8,38.4,47.2,42.6345121,124.2858328
413,414,Phaya Kaeo,Thailand,35.1,27.6,55.1,114.5,168.8,88.80000000000001,8.8,9.4,11.0,8.6,9.9,15.5,20.0,19.28422,100.90886
414,415,Thua,Vietnam,35.1,53.4,41.3,32.5,23.0,28.6,24.8,28.5,35.9,36.9,39.6,42.3,34.5,16.4639321,107.5863388
415,416,Maanshan,China,35.0,52.2,45.2,42.6,36.4,29.4,23.4,15.6,21.5,21.0,32.6,42.2,58.7,31.6866105,118.5048377
416,417,Ernakulam,India,35.0,71.9,65.5,58.6,31.0,22.8,14.2,14.2,18.0,16.9,27.8,40.2,48.8,9.9837257,76.2740001
417,418,Gaziantep,Turkey,35.0,85.4,53.4,30.5,19.2,17.2,16.4,14.6,18.7,21.7,26.2,48.4,82.0,37.0628317,37.3792617
418,419,Anqing,China,34.9,62.3,49.8,40.8,33.6,27.7,20.9,12.7,18.3,21.4,34.2,37.0,58.0,30.6592336,116.6302585
419,420,Harbin,China,34.9,72.3,58.1,51.8,45.1,22.3,12.1,12.0,8.7,12.2,28.5,41.3,55.1,45.7593633,126.6276177
420,421,Mae Hia,Thailand,34.9,35.6,56.5,102.8,116.2,28.3,9.2,5.7,10.8,6.2,8.2,17.4,24.3,18.7475321,98.9414185
421,422,Tumkur,India,34.8,112.9,44.8,30.9,18.7,23.3,22.5,33.1,18.0,12.3,27.0,43.4,51.4,13.3400771,77.1006208
422,423,Yang Sai,Thailand,34.8,48.5,72.3,85.0,70.2,29.4,9.2,7.2,13.4,8.1,10.0,25.3,35.2,16.9580201,99.8311607
423,424,Liaoyang,China,34.7,44.5,56.5,45.7,46.7,27.6,20.0,18.8,17.9,20.1,30.0,38.1,51.0,41.2742898,123.1695757
424,425,Huzhou,China,34.7,46.5,37.9,40.9,36.2,29.9,26.6,16.5,22.5,25.9,31.6,41.6,58.0,30.8942995,120.0851114
425,426,Chinnachowk,India,34.7,75.6,72.6,62.0,37.4,21.1,18.0,18.3,24.5,19.4,35.8,28.4,36.0,14.4727602,78.8598884
426,427,Clement Town,India,34.7,69.6,31.3,20.3,29.8,31.8,22.5,12.3,21.2,27.3,37.4,55.6,66.6,30.2613281,78.0120117
427,428,Rop Wiang,Thailand,34.6,33.6,56.9,107.8,124.5,21.7,9.8,7.1,7.6,6.6,7.6,17.2,23.6,20.2735965,100.0786646
428,429,Huludao,China,34.5,45.5,54.1,59.3,35.7,25.7,22.0,23.8,26.0,22.3,27.8,26.2,43.2,40.7515443,120.8404789
429,430,Ban Tom,Thailand,34.5,37.2,60.0,95.1,132.8,72.85000000000001,12.9,10.0,12.1,9.2,10.9,18.7,25.6,18.715867,98.9079889
430,431,Kannur,India,34.4,52.3,34.8,26.8,39.5,39.0,39.4,34.9,33.6,33.6,33.6,26.4,23.7,11.8763836,75.3737973
431,432,Vrindavan,India,34.4,45.8,34.5,25.2,27.1,24.2,29.9,31.2,24.0,15.6,42.6,73.0,41.7,27.5753726,77.6938045
432,433,Hefei,China,34.3,54.9,42.7,39.8,35.4,29.0,22.6,14.7,21.3,22.6,34.8,36.7,57.6,31.8665676,117.281428
433,434,Akkarampalle,India,34.3,23.5,22.9,46.6,62.9,48.2,42.9,36.9,31.7,21.6,30.3,27.7,42.0,13.65,79.42
434,435,Chittoor,India,34.3,25.8,47.6,28.2,47.7,46.1,23.2,14.4,24.1,17.2,62.3,32.9,43.4,13.2026484,79.0032253
435,436,Chai Sathan,Thailand,34.3,18.7,50.5,80.1,83.9,17.8,4.8,2.5,4.7,6.525,8.35,10.175,12.0,18.7347226,99.0496174
436,437,Shuozhou,China,34.2,50.4,46.8,46.1,44.8,31.4,21.3,20.0,21.8,22.6,27.9,25.9,49.8,39.592737,112.541339
437,438,Mangaluru,India,34.2,52.6,55.3,48.0,26.3,16.3,22.8,22.4,20.4,18.3,38.5,46.6,41.9,12.8698101,74.8430082
438,439,Lebedinovka,Kyrgyzstan,34.2,130.0,88.0,37.1,17.0,11.9,13.0,11.1,10.9,12.7,22.8,32.0,26.6,42.8855957,74.6755337
439,440,Beijing,China,34.1,32.0,53.9,58.6,41.4,30.0,19.4,18.2,21.0,27.0,35.9,30.1,43.2,40.190632,116.412144
440,441,Changli,China,34.1,39.2,44.6,51.8,30.9,33.6,29.2,22.0,21.9,29.0,34.3,30.0,42.9,39.5829102,119.2058701
441,442,Shenyang,China,34.1,43.9,50.3,48.6,49.3,24.7,19.5,19.4,16.0,19.8,31.8,35.4,52.0,41.8026095,123.4279105
442,443,Secunderabad,India,34.1,32.0,35.4,33.4,36.9,35.7,34.2,34.5,30.9,33.6,36.0,33.7,34.0,17.4337246,78.5006827
443,444,Shymkent,Kazakhstan,34.1,66.9,50.2,32.7,23.5,24.6,20.8,21.3,28.1,33.2,45.8,38.5,37.3,42.3146962,69.5883282
444,445,Chuzhou,China,34.0,50.2,45.7,46.4,38.2,28.6,21.4,15.3,18.9,18.9,29.6,37.1,53.9,32.3027377,118.3139455
445,446,Gushu,China,34.0,55.4,40.8,33.8,26.8,26.5,29.7,16.3,21.8,20.1,33.8,43.2,49.4,22.6037783,113.8420114
446,447,Yinchuan,China,34.0,56.4,46.2,37.1,46.7,25.7,17.2,17.1,18.0,25.5,31.0,33.6,53.0,38.4852037,106.2261926
447,448,Lakhanpur,India,34.0,46.4,42.8,44.1,25.5,17.0,34.2,41.2,21.6,19.5,26.0,33.6,36.3,21.7538399,83.7830482
448,449,Bareilly,India,34.0,53.8,40.3,31.5,29.4,27.2,20.5,16.2,18.7,14.5,35.4,70.0,51.2,28.4582344,79.4047452
449,450,Pong Pha,Thailand,34.0,23.4,42.1,105.5,119.6,21.3,7.8,4.9,4.6,4.6,6.4,14.8,19.0,12.9401592,100.9188147
450,451,Kohima,India,33.9,41.9,57.6,62.0,43.3,30.7,24.4,14.5,16.7,15.1,19.4,29.1,36.5,25.6618755,94.1019156
451,452,Madhyapur Thimi,Nepal,33.8,219.2,63.4,57.6,66.3,31.3,21.1,12.1,10.6,13.8,20.6,33.1,44.4,27.6800062,85.3857303
452,453,Abbottabad,Pakistan,33.8,38.1,29.5,23.5,18.0,22.6,30.6,26.9,40.0,37.2,33.8,46.8,61.5,34.1436136,73.2132747
453,454,Guozhen,China,33.7,66.7,71.5,39.3,42.2,18.7,13.4,14.9,15.8,19.5,17.9,35.3,56.4,34.3645345,107.358696
454,455,Niluefer,Turkey,33.7,42.6,41.4,35.5,29.7,34.6,32.6,32.0,33.9,29.3,22.8,0.0,0.0,40.2607952,28.8410262
455,456,Yingkou,China,33.6,46.4,50.6,49.1,40.3,25.3,18.3,18.2,18.0,22.2,32.2,33.4,48.7,40.6747155,122.2357736
456,457,San Sai,Thailand,33.6,36.1,52.0,98.5,120.9,26.1,9.2,5.1,10.5,5.9,8.1,15.8,21.5,18.9474888,99.037852
457,458,Tongling,China,33.5,54.1,41.2,36.5,33.0,27.6,20.8,14.1,19.9,23.9,33.4,39.2,57.8,30.9057603,117.6141351
458,459,Hanzhong,China,33.5,87.3,48.2,32.0,33.2,21.3,18.8,14.1,12.6,13.9,19.7,39.9,67.6,33.171124,107.045009
459,460,Amaravati,India,33.5,59.9,37.5,29.4,24.4,23.4,18.6,11.7,18.9,15.6,46.0,47.9,66.5,16.5096679,80.5184535
460,461,Klang,Malaysia,33.5,34.5,23.9,29.1,36.4,28.0,31.8,26.6,32.1,33.5,62.7,27.5,34.5,3.0448394,101.4447363
461,462,Bo Haeo,Thailand,33.5,51.2,96.1,93.9,89.4,19.1,3.3,2.3,3.5,2.8,3.8,7.6,11.5,18.3032872,99.4360864
462,463,Na Phra Lan,Thailand,33.5,43.9,54.5,53.9,46.7,33.150000000000006,19.6,20.6,24.8,24.0,26.8,26.9,29.4,14.6892491,100.8701891
463,464,Yilan,China,33.4,68.9,54.5,50.6,45.8,23.2,15.5,12.9,8.9,12.4,23.8,37.8,50.3,46.3208082,129.5650414
464,465,Chiang Mai,Thailand,33.4,34.7,56.7,97.8,104.2,27.2,8.9,5.3,10.8,6.4,9.0,16.8,24.8,18.7882778,98.9858802
465,466,Anshan,China,33.3,42.2,53.2,44.1,44.2,25.6,23.8,20.2,20.1,23.2,30.4,32.1,41.9,40.822222,122.8275
466,467,Tirupati,India,33.3,51.2,44.1,36.0,34.1,33.2,18.7,11.1,18.2,12.0,45.3,35.5,53.4,13.6316368,79.4231711
467,468,Shillong,India,33.3,50.7,57.4,63.6,59.2,29.4,22.6,10.6,15.7,16.1,24.0,36.8,27.8,25.5760446,91.8825282
468,469,Quthbullapur,India,33.3,33.6,32.9,31.1,44.0,35.4,33.8,22.5,28.9,30.7,38.5,36.0,31.6,17.2356174,78.0285618
469,470,Ziyang,China,33.2,72.3,57.8,31.0,24.2,23.1,15.1,15.3,13.9,19.0,23.4,37.4,64.6,30.0928618,105.1336656
470,471,Rim Kok,Thailand,33.2,26.6,53.6,110.6,123.7,23.6,6.9,3.8,5.3,5.0,5.2,14.8,17.4,19.9358614,99.7719836
471,472,Ko Rian,Thailand,33.2,41.8,57.7,63.4,64.9,30.3,13.2,10.5,16.2,14.1,23.5,30.2,33.0,14.3148497,100.5736755
472,473,Bang Phrom,Thailand,33.2,52.2,59.2,57.0,56.7,26.2,13.0,11.3,13.3,9.1,21.1,37.0,44.6,13.7545632,100.4457986
473,474,Konya,Turkey,33.2,79.2,52.4,25.8,20.4,20.1,16.8,16.9,20.4,18.0,29.3,33.4,64.7,37.872734,32.4924376
474,475,Luan,China,33.1,64.2,48.6,42.3,33.5,24.1,17.0,10.9,15.4,16.6,28.7,37.6,58.4,39.7629676,118.6588085
475,476,Acheng,China,33.1,75.6,57.4,45.2,44.4,24.6,12.0,11.1,9.2,10.8,21.4,38.7,55.0,45.5362499,126.9694447
476,477,Gaddi Annaram,India,33.1,44.3,37.6,38.0,44.3,43.6,32.1,26.9,25.0,22.0,33.6,39.4,25.2,17.3916207,78.5600446
477,478,Dashiqiao,China,33.0,44.3,50.1,46.5,41.5,24.7,18.0,18.1,17.5,24.1,34.0,31.5,47.5,40.6348183,122.5042794
478,479,Hoskote,India,33.0,39.2,39.2,39.2,39.2,36.0,32.9,21.8,26.7,23.3,51.6,28.4,40.7,13.073014,77.7921381
479,480,Patancheru,India,33.0,44.3,33.7,47.2,40.3,47.6,43.9,26.7,24.9,24.6,25.3,21.9,21.1,17.5286092,78.2674254
480,481,Xuanzhou,China,32.9,49.9,45.6,39.8,36.0,27.7,21.5,12.1,18.3,22.4,30.1,36.8,54.8,30.9486697,118.7514279
481,482,Beibei,China,32.9,64.1,46.6,28.9,25.5,24.2,20.4,19.2,20.3,22.1,24.4,37.2,63.3,29.8669185,106.5229916
482,483,Jurong,China,32.9,49.6,45.8,43.8,37.4,27.9,19.4,9.0,14.4,19.6,29.4,40.3,58.6,31.9478237,119.1633971
483,484,Lianyungang,China,32.9,54.0,39.0,47.3,33.3,25.2,18.5,14.0,13.7,19.5,29.8,40.6,56.9,34.5933134,119.2171662
484,485,Xiaoshan,China,32.9,43.9,35.0,38.3,33.4,28.0,26.9,16.5,20.8,23.9,31.2,35.8,58.4,30.1861821,120.2597528
485,486,Alasehir,Turkey,32.9,24.9,17.9,15.7,16.2,35.0,42.9,58.9,57.3,31.0,28.5,48.5,26.7,38.3507471,28.516575
486,487,Jiuquan,China,32.8,51.7,37.3,41.8,42.1,32.4,24.4,25.6,26.3,25.8,23.2,29.1,33.9,40.2773513,96.4560478
487,488,Kathivakkam,India,32.8,41.8,45.7,32.6,21.9,30.0,25.2,21.5,20.7,19.9,34.0,30.4,43.5,13.2040384,80.3165473
488,489,Palembang,Indonesia,32.8,4.0,3.0,2.3,2.7,3.0,12.5,18.3,34.9,89.8,137.5,47.9,22.0,-2.9888243,104.7568507
489,490,Loei,Thailand,32.8,31.2,52.4,81.9,93.9,52.6,11.3,8.7,15.1,6.2,6.9,19.8,24.7,17.3158563,101.4638277
490,491,Tha Phon,Thailand,32.8,37.7,58.1,78.9,67.0,34.8,15.1,12.9,19.3,10.6,15.6,23.2,22.2,16.5694088,101.150662
491,492,Baiyin,China,32.7,45.0,42.0,46.5,50.7,31.9,22.7,18.0,19.8,18.8,21.1,35.0,40.9,36.536461,104.784953
492,493,Wuzhen,China,32.6,33.2,33.2,33.2,34.5,31.6,27.9,17.6,21.8,24.2,33.1,41.9,59.8,30.7464875,120.4819022
493,494,Baotou,China,32.5,43.4,35.9,42.3,45.8,31.5,15.4,17.1,17.3,18.3,26.1,29.8,65.4,40.6174777,109.944912
494,495,Talas,Kyrgyzstan,32.5,80.8,64.4,30.9,18.7,10.9,7.7,6.7,7.4,12.4,27.5,39.7,84.9,42.4406777,72.1408556
495,496,Chang Khoeng,Thailand,32.5,33.1,69.6,94.0,138.1,95.16666666666666,52.233333333333334,9.3,7.9,8.7,8.7,8.1,12.0,18.4988603,98.3660781
496,497,Mae On,Thailand,32.5,33.2,54.3,87.2,97.8,32.4,11.8,6.6,11.9,7.3,9.9,16.7,20.7,18.726959,99.2993218
497,498,Pak Nam,Thailand,32.5,39.3,48.5,40.6,43.9,31.35,18.8,20.5,20.6,18.9,27.5,37.8,43.5,13.6021243,100.5970924
498,499,Chizhou,China,32.4,57.0,46.4,36.8,33.4,26.0,19.0,9.3,16.9,20.4,29.3,32.5,55.7,30.6671088,117.4859885
499,500,Hohhot,China,32.4,51.1,35.0,41.4,44.2,29.3,16.9,16.7,15.7,18.3,32.1,25.7,59.8,40.8184528,111.6601939
500,501,Sujiatun,China,32.4,46.3,51.4,43.0,40.0,20.2,16.6,15.8,13.9,17.0,34.7,36.1,52.1,41.6626981,123.3379327
501,502,Dingxi,China,32.3,55.5,40.2,40.2,42.1,24.8,21.8,18.3,18.5,18.3,22.4,37.1,48.1,35.1773165,104.59362
502,503,Karauli,India,32.3,17.7,17.7,17.7,25.5,24.9,20.8,33.3,22.3,17.4,32.4,53.6,71.0,26.4530971,77.0160461
503,504,Wuhai,China,32.2,45.6,42.2,44.3,52.5,29.9,16.1,22.7,20.8,23.9,22.9,26.4,39.9,39.4857837,106.900469
504,505,Rizhao,China,32.2,51.2,37.5,46.1,32.3,27.3,19.6,15.1,13.5,20.1,29.6,36.2,55.5,35.4178833,119.5213994
505,506,Pak Khwae,Thailand,32.2,39.9,63.5,83.6,74.6,27.0,8.3,6.1,12.4,6.6,5.3,20.3,27.2,14.1478845,100.489186
506,507,Suthep,Thailand,32.1,31.6,52.2,96.5,103.9,27.8,9.0,4.7,10.1,6.1,8.2,15.9,21.1,18.7924876,98.9526159
507,508,Fuxin,China,32.0,41.6,45.5,58.6,34.0,28.9,18.5,21.4,17.4,20.5,28.4,26.6,41.5,42.330278,122.015278
508,509,Ya'an,China,32.0,60.6,47.9,30.3,25.0,23.6,18.3,18.1,13.6,19.3,21.6,34.5,69.4,29.8931184,102.7416508
509,510,Mudu,China,31.9,44.2,33.4,37.3,34.9,28.7,24.5,17.1,18.8,19.9,26.8,37.0,58.1,31.2597028,120.5116003
510,511,Nanchang,China,31.9,54.3,46.3,39.8,27.0,26.9,17.5,12.1,17.8,18.8,33.3,37.3,52.0,28.6472124,116.0348483
511,512,Jiaonan,China,31.9,48.9,37.6,45.0,31.2,27.6,21.1,16.3,16.2,20.2,27.7,33.5,55.5,26.6593488,119.5250701
512,513,Linan,China,31.9,45.2,38.3,37.6,33.1,28.9,22.8,13.3,18.0,23.8,30.6,35.0,54.5,30.2371364,119.7192631
513,514,Banting,Malaysia,31.9,23.1,23.3,19.9,37.7,30.8,34.1,30.4,35.5,38.8,58.5,25.7,24.1,2.8027574,101.4956767
514,515,Ban Waen,Thailand,31.9,38.7,52.6,87.1,95.3,23.6,8.4,5.6,9.7,5.9,8.8,20.8,26.7,18.7039512,98.9334728
515,516,Lat Sawai,Thailand,31.9,36.8,45.9,49.5,49.7,25.8,11.5,10.1,14.466666666666665,18.833333333333332,23.2,26.4,30.5,13.9608171,100.6850462
516,517,Suzhou,China,31.8,44.1,33.1,37.2,35.3,28.6,23.9,16.2,18.7,20.4,26.8,36.7,59.0,31.311123,120.6212881
517,518,Xiaoshi,China,31.8,45.7,46.4,39.7,42.7,23.3,21.4,19.8,19.4,21.0,29.8,31.0,42.8,41.2669981,124.0997659
518,519,Jiashan,China,31.8,41.7,31.3,36.1,34.1,27.8,25.0,16.8,19.3,21.3,28.1,38.3,61.4,30.8327446,120.9218024
519,520,Shaoxing,China,31.8,44.2,33.6,37.1,31.8,27.7,26.8,16.5,20.0,22.0,31.2,33.8,54.6,29.9992425,120.576854
520,521,Sokuluk,Kyrgyzstan,31.8,104.9,72.7,35.6,17.6,13.4,13.9,12.0,11.4,12.7,21.6,41.4,40.2,42.6649454,74.2423641
521,522,Chang Klan,Thailand,31.7,36.6,67.1,120.2,109.1,33.3,11.2,6.9,13.0,8.2,11.6,21.9,28.5,18.765022,98.9970333
522,523,Wiang Chai,Thailand,31.7,252.5,252.5,252.5,120.9,30.8,9.7,6.0,8.8,7.8,9.6,20.8,25.7,19.8623342,99.9778338
523,524,Pang Mu,Thailand,31.7,26.6,43.3,131.7,143.1,75.05,7.0,4.3,7.2,5.3,5.1,9.3,14.5,15.9324088,99.5016425
524,525,Mae Pa,Thailand,31.7,41.3,78.0,80.6,57.5,33.65,9.8,9.9,12.1,9.0,11.7,19.6,30.6,18.1311346,99.510131
525,526,Fushun,China,31.6,43.1,48.8,43.0,48.0,22.3,18.4,17.3,14.4,16.8,30.5,30.7,43.6,41.8011658,124.7459491
526,527,Dazhou,China,31.6,85.8,47.9,24.1,22.2,21.9,13.8,11.7,15.4,20.2,20.4,31.8,60.9,31.345115,107.650683
527,528,Bayan Nur,China,31.5,41.2,35.4,40.4,48.9,32.4,18.7,20.4,23.8,20.2,26.1,27.4,43.2,41.569576,107.494851
528,529,Jimo,China,31.5,46.6,38.6,44.7,31.4,25.0,16.9,15.0,16.5,18.6,27.6,36.6,59.8,36.4083982,120.5348775
529,530,Haveri,India,31.5,53.2,55.2,42.5,30.7,12.8,8.2,5.3,9.7,8.3,40.1,42.2,56.2,14.7180267,75.3656423
530,531,Jiujiang,China,31.4,62.7,48.1,37.4,30.1,23.9,18.3,12.3,19.2,20.7,31.3,35.3,51.4,29.388607,115.3820227
531,532,Xuancheng,China,31.4,45.7,45.5,36.6,32.6,27.0,21.0,10.3,17.8,21.5,30.1,33.7,51.4,30.9412541,118.7540167
532,533,Zhangye,China,31.4,43.3,30.8,55.4,46.8,37.2,22.2,18.2,21.8,22.4,21.3,28.3,29.1,39.121833,99.924947
533,534,Liaoyuan,China,31.4,52.7,53.6,46.7,45.0,21.0,17.1,15.1,12.9,14.8,32.6,26.4,39.9,42.8863846,125.1374905
534,535,Panjin,China,31.4,40.1,40.9,48.7,39.9,28.4,19.3,18.0,15.6,18.6,31.4,30.8,43.8,41.1796147,122.0524321
535,536,Jinhua,China,31.4,44.1,39.6,41.1,32.8,28.3,25.2,13.8,16.4,19.8,29.4,33.2,51.5,29.1080344,119.6486487
536,537,Yadgir,India,31.4,42.3,41.3,37.7,32.6,26.5,18.3,11.3,13.9,14.0,39.3,43.0,51.8,16.5744123,76.9254434
537,538,Mueang,Thailand,31.3,43.5,58.7,80.4,83.0,28.9,10.6,7.1,10.6,7.0,10.3,18.1,25.0,13.2684945,100.9676152
538,539,Xishan,China,31.2,65.5,42.6,34.4,27.6,26.0,19.4,14.6,19.3,23.9,36.6,36.3,46.9,31.5925742,120.3545373
539,540,Hangzhou,China,31.2,43.8,36.9,38.4,31.9,27.3,22.8,13.7,18.0,21.8,29.4,34.5,53.5,30.2489634,120.2052342
540,541,Agra,India,31.2,41.5,17.6,15.1,13.1,20.2,24.1,23.1,26.3,28.5,49.3,65.2,50.2,27.1752554,78.0098161
541,542,Sukhothai,Thailand,31.2,36.6,78.5,74.2,61.0,34.75,8.5,8.0,14.9,8.4,8.8,24.6,30.4,17.010918,99.8203682
542,543,Siping,China,31.1,39.2,44.6,50.8,42.1,22.4,17.8,16.9,13.9,17.2,29.7,36.0,42.8,43.1669821,124.364739
543,544,Quzhou,China,31.1,42.7,37.4,38.4,30.3,29.4,25.0,15.5,18.1,23.2,33.2,31.9,46.7,28.973887,118.8540924
544,545,Fa Ham,Thailand,31.1,33.1,49.7,81.9,96.5,26.6,11.2,6.3,11.9,6.6,10.2,17.6,23.9,18.8108795,99.0050791
545,546,Nong Khai,Thailand,31.1,29.1,44.7,66.6,91.3,52.6,13.9,11.1,16.3,10.7,18.7,21.0,40.7,17.8825057,102.7482277
546,547,Wat Chan,Thailand,31.1,41.7,57.2,69.8,66.3,29.6,9.9,8.8,16.9,6.1,10.3,26.4,30.9,13.8114993,100.4970561
547,548,Baise,China,31.0,47.7,42.6,42.0,37.0,26.4,18.7,20.8,17.5,18.9,24.8,36.7,39.4,23.9053605,106.6148824
548,549,Chikkaballapur,India,31.0,51.4,48.2,35.3,33.1,21.3,12.1,7.4,13.2,16.5,49.2,34.5,43.0,13.0993764,77.388729
549,550,Uttaradit,Thailand,31.0,31.6,50.1,88.5,71.4,34.0,12.6,9.6,15.4,8.4,10.6,21.4,26.8,17.6217255,100.0981816
550,551,Changchun,China,30.9,46.0,47.0,50.4,46.0,22.5,13.9,11.5,9.9,13.2,31.0,38.5,40.7,43.8844201,125.3180998
551,552,Benxi,China,30.7,44.9,46.3,40.5,38.9,22.3,21.4,19.1,16.8,19.7,27.3,29.4,42.2,41.176944,124.157425
552,553,Suining,China,30.7,70.9,53.0,29.6,25.9,23.0,15.0,14.4,13.6,18.2,22.3,31.8,51.6,30.5061493,105.574542
553,554,Babu,China,30.6,51.7,40.6,42.2,26.8,26.4,17.3,20.1,17.6,18.8,28.1,35.8,39.7,24.3320844,111.7803928
554,555,Wat Ket,Thailand,30.6,26.8,48.6,93.3,113.6,22.7,7.7,4.3,8.3,4.8,7.0,12.7,17.9,14.3831547,100.522458
555,556,Fuyang,China,30.5,42.6,34.6,35.9,31.2,27.2,23.1,15.1,19.2,22.6,30.8,33.9,48.7,32.8926763,115.8090001
556,557,Palwal,India,30.5,41.5,38.9,32.8,26.2,25.3,20.1,15.9,25.1,20.9,30.8,57.6,28.7,28.0599426,77.3223422
557,558,Hang Dong,Thailand,30.5,44.5,50.1,88.4,88.6,23.7,8.3,5.1,9.4,5.6,8.6,20.0,27.6,18.7242919,98.9001685
558,559,Na Muang,Thailand,30.5,49.7,52.1,50.2,47.4,31.1,14.8,15.7,16.7,10.9,17.6,27.7,38.8,6.9655539,100.5551915
559,560,Pingliang,China,30.4,48.6,57.5,35.5,39.8,21.9,17.7,16.5,17.4,21.2,21.3,29.6,39.3,35.22678,106.495648
560,561,Yutan,China,30.4,119.8,36.8,21.6,24.9,27.0,19.7,15.7,23.9,21.4,36.5,40.2,48.0,28.2589576,112.552011
561,562,Chaoyang,China,30.4,44.5,40.3,52.5,34.4,24.8,18.3,17.7,16.3,21.1,29.0,26.5,37.9,41.5754767,120.4390738
562,563,Erbil,Iraq,30.4,38.8,26.7,26.3,22.1,25.9,27.4,24.5,24.5,28.6,34.8,45.0,39.0,36.1911744,44.0094145
563,564,Bang Khun Kong,Thailand,30.4,45.1,50.3,54.8,53.7,26.2,12.5,9.2,13.2,10.5,25.6,31.1,36.2,13.825566,100.4494902
564,565,Qinhuangdao,China,30.3,38.2,45.4,49.5,31.8,27.9,19.7,16.0,15.6,22.8,31.7,29.1,37.2,39.9395724,119.5894129
565,566,Jiujiang,China,30.3,49.1,41.8,32.8,26.7,24.3,18.8,12.7,18.4,21.0,35.4,32.9,49.1,29.388607,115.3820227
566,567,Ban Pong,Thailand,30.3,28.1,44.4,89.2,109.4,25.5,8.1,4.8,8.0,5.0,7.6,14.2,19.7,13.8542911,99.8618949
567,568,Nam Phong,Thailand,30.3,37.7,54.2,65.0,56.6,29.0,13.3,9.2,15.5,10.6,19.5,27.2,29.6,16.7093642,102.8612221
568,569,Nam Rit,Thailand,30.3,32.2,58.2,78.5,76.0,36.2,24.2,6.6,12.3,5.3,8.6,17.5,21.1,17.6859252,100.1232369
569,570,Jilin,China,30.2,46.7,45.8,40.4,49.6,21.7,18.3,13.1,11.4,14.3,27.3,38.0,37.0,43.7289674,126.1997366
570,571,Sirohi,India,30.2,67.0,25.1,21.6,10.6,21.9,33.2,20.5,27.8,16.6,29.8,55.6,46.0,24.8114047,72.8300257
571,572,Phrae,Thailand,30.2,37.1,63.6,71.0,84.9,48.6,12.3,10.8,15.3,10.2,12.8,20.7,25.7,18.14177,100.1425639
572,573,Uthai Thani,Thailand,30.2,40.0,48.9,58.0,65.1,39.05,13.0,12.7,16.3,13.2,15.5,26.6,37.1,15.3823399,100.0280546
573,574,Fuling,China,30.1,70.7,46.4,30.3,26.1,23.1,17.2,13.9,14.2,17.9,21.0,35.9,57.5,29.660589,107.332003
574,575,Phitsanulok,Thailand,30.1,36.1,59.3,73.7,67.5,24.1,9.7,8.6,15.6,6.5,8.8,22.8,31.1,16.8157611,100.2634423
575,576,Duzce,Turkey,30.1,58.8,41.8,27.1,19.0,16.5,16.6,18.8,24.0,16.9,27.7,31.4,63.1,40.8774545,31.2009618
576,577,Dalian,China,30.0,39.9,46.4,42.7,35.2,26.5,19.7,18.7,17.9,20.5,25.7,28.5,38.2,39.740278,122.255833
577,578,Lvliang,China,30.0,43.6,43.8,32.0,35.3,19.5,14.8,18.5,23.4,25.5,30.0,29.6,44.9,37.5673957,111.1311369
578,579,Nilai,Malaysia,30.0,23.6,15.8,24.6,40.8,29.0,31.2,28.0,38.7,44.4,46.6,20.4,15.4,2.8029227,101.8001051
579,580,Huaihua,China,29.9,67.0,46.9,34.6,29.8,24.6,17.6,14.2,18.3,19.9,22.7,25.4,39.6,27.659483,110.143549
580,581,Iskenderun,Turkey,29.9,50.1,97.7,30.8,22.0,19.7,18.6,18.9,23.1,21.3,25.6,25.6,25.6,36.5902266,36.1710354
581,582,Xianning,China,29.8,55.7,40.6,30.8,24.6,25.1,18.7,12.0,19.2,18.3,36.0,29.2,46.2,29.8437545,114.3169418
582,583,Chang Phueak,Thailand,29.8,30.7,49.8,88.7,95.0,20.5,8.8,6.3,10.6,6.5,7.4,13.8,21.2,18.8131152,98.9782191
583,584,Hubli,India,29.7,52.4,62.6,46.5,35.8,25.4,16.6,11.9,16.0,18.4,22.9,24.6,24.5,15.3518378,75.1379848
584,585,Kolhapur,India,29.7,21.4,21.4,21.4,21.4,20.3,17.8,21.7,13.5,15.7,38.9,50.9,59.8,16.7028412,74.2405329
585,586,Vientiane,Laos,29.7,37.0,43.7,63.5,59.6,23.7,11.2,9.4,14.8,9.8,17.9,32.5,34.9,17.9640988,102.6133707
586,587,Xinyu,China,29.6,47.7,35.1,34.4,25.3,25.0,19.6,15.2,22.1,22.6,32.3,33.2,43.5,27.853572,114.8867147
587,588,Kumul,China,29.6,55.1,37.3,34.2,28.6,24.6,17.4,20.7,20.6,21.5,23.7,31.5,38.7,42.817404,93.5142008
588,589,Shangyu,China,29.6,39.6,33.3,34.3,31.0,25.3,24.4,14.1,18.1,21.2,30.1,31.7,50.4,30.0357,120.8640628
589,590,Om Noi,Thailand,29.6,39.2,40.3,42.8,39.7,28.25,16.8,17.1,20.1,16.5,25.5,31.6,37.4,13.7064729,100.2990098
590,591,Wuxi,China,29.5,41.1,30.9,33.0,32.2,26.3,20.9,13.3,18.1,21.1,28.2,34.1,52.3,31.5776626,120.2952752
591,592,Xining,China,29.5,42.3,41.7,39.3,38.2,24.9,17.6,17.1,17.6,18.7,22.9,34.9,39.3,36.824463,101.440811
592,593,Qingdao,China,29.5,44.2,37.5,42.6,28.6,25.2,18.6,14.6,14.8,17.4,24.1,32.5,52.3,36.0663249,120.3777659
593,594,Kochi,India,29.5,35.0,31.4,43.3,33.5,35.7,31.1,29.6,28.4,19.4,24.0,25.5,13.7,9.9679032,76.2444378
594,595,Bueng Kham Phroi,Thailand,29.5,42.8,58.4,75.4,68.2,26.9,8.9,7.3,10.8,6.4,7.6,19.2,26.1,13.9587243,100.7272909
595,596,Nanjing,China,29.4,42.7,34.7,37.3,33.7,25.9,19.5,11.6,15.9,17.4,27.7,35.0,49.1,32.0438284,118.7788631
596,597,Xiaolingwei,China,29.4,43.8,35.1,35.4,32.3,24.8,19.4,12.8,17.6,18.3,27.7,34.5,49.2,32.0360687,118.8568528
597,598,Yichun,China,29.4,48.8,34.3,34.1,25.0,25.7,20.7,16.0,21.9,22.9,32.5,31.4,40.2,28.3803015,115.0153957
598,599,Songjiang,China,29.4,34.9,25.6,32.8,40.3,32.7,25.7,17.7,17.4,20.6,26.9,35.4,50.8,31.0344052,121.2232077
599,600,Jiaxing,China,29.4,41.7,33.0,34.9,31.9,26.5,22.4,15.2,16.4,17.8,24.4,33.9,53.5,30.7474425,120.7510971
600,601,Tilak Nagar,India,29.4,26.5,23.6,32.8,29.3,36.2,30.7,21.7,18.9,18.8,43.9,27.3,50.3,28.6365482,77.0964961
601,602,Haldia,India,29.4,65.2,37.2,27.8,25.0,15.3,16.1,8.1,19.7,11.2,30.9,47.4,49.5,22.028124,88.0632655
602,603,Xingbin Qu,China,29.3,56.5,41.1,40.1,30.3,24.0,15.8,16.4,14.7,16.3,23.0,32.9,39.0,23.6628439,109.2161165
603,604,Tongliao,China,29.3,35.1,33.2,44.5,35.9,31.7,22.0,21.8,15.4,18.9,26.8,33.2,32.9,43.6151762,122.2601035
604,605,Salem,India,29.3,39.4,37.8,25.5,31.6,26.8,20.2,15.1,18.9,17.4,42.0,28.6,45.6,11.6469616,78.2106958
605,606,Khlong Luang,Thailand,29.3,35.3,43.2,43.7,38.5,19.8,9.6,8.566666666666666,7.533333333333333,6.5,18.0,20.0,26.3,14.1033948,100.6703459
606,607,Guilin,China,29.2,54.3,41.0,45.8,31.8,23.4,15.7,14.2,13.1,16.5,24.2,30.8,40.3,25.2779894,110.2910622
607,608,Yongfeng,China,29.2,81.6,39.9,17.2,30.1,29.0,19.3,16.4,21.9,23.4,36.4,36.2,46.4,27.0955782,115.6337755
608,609,Chengzihe,China,29.1,57.6,43.9,33.3,46.6,22.5,13.2,11.4,9.2,14.2,23.5,32.8,40.3,45.377197,131.019432
609,610,Choraut,India,29.1,42.2,27.8,24.0,34.7,27.9,33.4,16.7,18.1,12.1,27.3,48.8,34.9,26.5326478,85.793816
610,611,Shah Alam,Malaysia,29.1,22.1,20.8,22.1,29.7,24.9,29.3,25.8,39.6,53.1,48.3,17.3,15.6,3.0739429,101.5185278
611,612,Jiayuguan,China,29.0,43.2,31.4,41.2,44.5,31.9,21.8,24.7,23.3,20.8,17.6,23.5,24.2,39.7722294,98.2885388
612,613,Indralaya,Indonesia,29.0,12.8,13.0,12.4,12.3,18.2,22.2,18.5,28.4,79.9,156.0,156.0,156.0,-3.2428485,104.6986527
613,614,Nong Bua Lamphu,Thailand,29.0,36.5,51.8,58.5,47.2,20.8,9.0,7.3,6.8,6.3,14.1,24.1,27.1,17.3521009,102.2074566
614,615,Kahramanmaras,Turkey,29.0,93.2,38.8,25.5,18.0,15.1,19.3,16.1,26.6,25.0,20.7,21.8,23.9,37.7830345,36.830655
615,616,Qingyang,China,28.9,50.7,50.7,37.4,36.1,19.6,15.8,15.6,15.0,18.9,22.9,28.1,39.4,36.182368,107.6216357
616,617,Changzhou Qu,China,28.9,38.0,36.7,41.9,28.8,25.3,20.4,20.9,19.5,20.0,25.6,34.5,34.7,23.4885963,111.270561
617,618,Zhangjiajie,China,28.9,67.7,47.8,28.4,25.3,21.3,14.8,14.1,19.7,17.5,20.4,27.8,43.5,29.373828,110.530142
618,619,Songyuan,China,28.9,44.3,39.0,40.6,41.7,24.7,16.0,14.7,8.3,12.8,24.9,38.0,42.9,45.1386775,124.8170805
619,620,Bazhong,China,28.9,70.3,39.5,25.6,24.6,23.1,17.3,15.0,13.9,14.2,21.6,28.0,51.3,32.040248,107.062301
620,621,Pakse,Laos,28.9,22.8,30.1,77.9,50.7,29.6,14.1,12.7,13.6,12.2,11.8,12.9,14.0,15.1154053,105.8271566
621,622,Galle,Sri Lanka,28.9,37.2,37.2,37.2,41.1,27.0,26.7,28.1,27.5,26.4,30.9,24.1,27.4,6.0328139,80.214955
622,623,Tianshui,China,28.8,49.5,45.0,31.8,35.3,20.3,16.6,13.6,14.4,17.1,20.9,31.9,51.4,34.6538841,105.8003895
623,624,Honggang,China,28.8,47.4,41.3,36.3,35.1,22.6,15.4,15.9,14.0,17.9,24.2,28.5,46.1,46.3966917,124.8844111
624,625,Chenzhou,China,28.8,55.7,42.4,35.8,20.7,24.1,16.7,13.8,17.2,22.7,31.1,29.5,36.2,25.7733598,113.0094337
625,626,Yancheng,China,28.8,46.1,28.8,39.3,31.2,22.5,16.7,14.5,14.4,15.7,25.2,36.5,52.5,33.349559,120.1577019
626,627,Jinsha,China,28.7,46.4,29.0,38.3,34.4,21.5,17.5,12.8,11.5,11.9,25.0,40.5,53.2,27.7622254,100.3617758
627,628,Shanghai,China,28.7,37.1,28.0,31.3,32.5,28.3,26.8,17.8,16.1,19.3,23.9,33.4,48.5,31.2312707,121.4700152
628,629,Nakhon Phanom,Thailand,28.7,39.7,49.7,80.5,55.9,34.25,12.6,10.0,15.6,10.0,16.0,18.6,24.2,17.4032326,104.7853098
629,630,Haiphong,Vietnam,28.7,47.3,47.3,47.3,47.3,26.4,16.7,15.6,17.0,20.6,28.3,43.2,45.6,20.8816206,106.6790146
630,631,Pingxiang,China,28.6,54.8,38.3,31.6,22.8,22.9,16.5,12.9,18.2,19.8,29.8,29.8,46.7,27.5440835,113.9513109
631,632,Yulin,China,28.6,39.8,39.5,42.1,47.0,26.6,16.1,15.1,17.3,18.7,21.0,21.7,40.4,38.2851657,109.7290619
632,633,Bengaluru,India,28.6,42.9,40.9,36.2,35.0,23.6,16.1,12.4,19.3,14.6,35.8,31.4,35.8,12.9881567,77.6226
633,634,Arnavutkoy,Turkey,28.6,21.8,21.1,34.6,14.5,12.8,9.8,11.6,12.0,155.4,155.4,155.4,155.4,41.184471,28.7412446
634,635,Tashkent,Uzbekistan,28.6,82.5,25.9,19.7,17.6,14.6,20.2,18.4,15.9,22.3,33.9,31.2,38.5,41.3123363,69.2787079
635,636,Shangmei,China,28.5,86.9,44.2,16.4,32.5,25.1,19.5,15.6,23.5,23.1,30.0,39.0,44.9,27.7458349,111.2985419
636,637,Datong,China,28.5,38.7,37.1,37.2,36.1,26.9,18.0,16.5,15.5,18.1,25.4,24.6,48.2,40.0919817,113.2951122
637,638,Honghe,China,28.5,33.3,40.4,46.9,60.3,25.9,19.1,15.4,15.1,17.9,19.2,23.6,28.0,23.3634018,103.3716107
638,639,Ooty,India,28.5,32.8,37.5,38.6,38.5,44.0,25.2,15.8,21.8,13.4,33.3,17.1,20.1,11.4126769,76.7030504
639,640,Khlong Phra Udom,Thailand,28.5,42.1,44.4,48.6,47.7,23.1,12.2,10.4,13.4,11.2,24.6,30.2,34.5,13.9284025,100.4782962
640,641,Shiyan,China,28.4,47.8,49.8,31.9,33.2,19.8,16.8,15.0,17.1,19.3,20.6,29.9,40.8,32.45269,110.560812
641,642,Raipur,India,28.4,43.2,37.9,30.6,21.6,24.9,23.7,11.7,13.0,15.5,34.6,40.5,46.2,21.2380912,81.6336993
642,643,Kamphaeng Phet,Thailand,28.4,35.6,57.8,69.8,67.6,23.9,9.0,7.2,11.6,8.2,9.4,18.0,25.6,16.4183581,99.6111616
643,644,Mae Mo,Thailand,28.4,25.9,62.1,68.2,77.7,24.7,10.4,7.7,10.9,8.3,11.2,16.6,22.6,18.2613977,99.7070391
644,645,Pakkret,Thailand,28.4,33.6,51.6,48.3,36.2,23.900000000000002,11.6,11.2,14.5,11.3,21.2,31.7,41.7,13.91533,100.4946496
645,646,Dalianwan,China,28.3,32.4,42.6,39.1,34.3,23.8,18.3,18.0,17.7,20.2,24.6,29.0,39.6,39.0344156,121.704626
646,647,Icmeler,Turkey,28.3,25.3,16.7,17.4,18.5,17.9,18.8,82.7,31.6,19.4,21.5,21.5,21.5,36.8013283,28.2313578
647,648,Wanxian,China,28.2,74.1,47.5,28.3,24.6,21.4,15.5,11.4,13.1,14.8,19.3,30.8,51.3,30.7136179,108.3926525
648,649,Jixi,China,28.2,55.6,42.7,33.2,45.2,21.8,13.5,11.8,9.1,14.5,23.9,29.2,37.7,45.65802,132.461493
649,650,Yangon,Myanmar,28.2,52.0,47.8,56.8,47.4,24.4,11.7,6.1,13.8,8.3,15.1,23.3,32.7,16.7967129,96.1609916
650,651,Liuzhou,China,28.1,46.0,35.3,42.5,27.6,23.9,15.3,16.9,13.8,16.8,23.6,33.3,39.9,25.0009993,109.3414252
651,652,Fenyi,China,28.1,45.6,38.7,34.4,24.1,22.7,18.9,12.3,20.1,20.8,31.5,32.1,33.1,27.841374,114.6433977
652,653,Panshan,China,28.1,34.0,39.6,47.9,38.4,22.5,16.6,14.6,13.5,14.2,23.7,27.9,38.9,41.2416751,121.9942467
653,654,Kharsia,India,28.1,42.4,29.3,42.4,31.1,23.2,18.4,11.5,19.8,15.4,25.0,40.9,38.8,21.9905525,83.1042482
654,655,Semarang,Indonesia,28.1,20.8,18.6,23.4,24.1,31.6,24.7,20.0,37.2,31.4,38.2,35.4,30.4,-6.9903988,110.4229104
655,656,Talghar,Kazakhstan,28.1,60.8,60.8,42.5,31.2,18.0,16.3,12.7,12.0,18.9,26.0,36.3,50.9,43.3027233,77.2395288
656,657,Bokhtar,Tajikistan,28.1,65.4,31.4,14.3,12.5,15.2,22.3,31.4,40.0,39.7,39.8,3.7,3.7,37.8357217,68.7820957
657,658,Kestel,Turkey,28.1,31.2,27.7,24.3,20.8,26.2,22.6,42.1,40.8,20.3,28.5,21.3,31.2,40.2007544,29.2128704
658,659,Guigang,China,28.0,45.8,37.1,41.4,31.0,24.0,15.6,17.4,13.4,16.2,21.7,34.7,37.1,23.3594346,110.0412939
659,660,Nantong,China,28.0,43.5,29.7,36.0,32.3,23.9,19.5,13.6,11.6,13.9,23.9,34.2,52.5,31.9827896,120.8904588
660,661,Gulbarga,India,28.0,52.5,76.4,43.3,35.5,8.7,17.6,11.0,15.5,22.0,21.8,19.5,16.8,17.3310003,76.8334228
661,662,Honnali,India,28.0,36.6,46.7,35.9,28.6,20.2,15.5,9.7,13.0,10.2,41.7,37.4,40.2,14.2389785,75.6457434
662,663,Chennai,India,28.0,46.1,35.5,24.7,19.5,26.9,24.6,20.4,23.7,17.1,28.4,28.9,40.1,13.0836939,80.270186
663,664,Petaling Jaya,Malaysia,28.0,21.6,20.4,21.9,35.3,28.6,31.9,22.5,27.6,38.3,46.7,20.0,20.2,3.0988792,101.6454202
664,665,Bang Nam Chuet,Thailand,28.0,40.4,43.6,41.6,45.9,23.5,12.2,12.1,13.0,10.5,28.6,33.1,35.1,13.6051287,100.3602606
665,666,Bien Hoa,Vietnam,28.0,26.3,34.3,34.1,27.7,33.5,26.0,23.5,23.9,23.6,28.8,29.3,24.4,10.9509538,106.8226134
666,667,Mudanjiang,China,27.9,49.0,37.1,33.5,42.8,18.2,13.0,9.9,8.4,13.5,26.1,37.4,45.3,44.635006,130.013384
667,668,Jianguang,China,27.9,50.1,40.0,35.3,25.0,25.3,18.3,12.1,18.5,18.1,28.6,32.1,30.9,28.1982116,115.7810505
668,669,Lushun,China,27.9,35.1,45.5,44.9,30.7,26.6,17.4,15.8,16.9,17.6,23.7,24.5,33.8,38.8430807,121.2475828
669,670,Nong Han,Thailand,27.9,21.1,41.1,73.9,101.1,26.2,9.0,5.3,10.4,6.2,7.4,14.8,20.2,17.3597552,103.1101813
670,671,Song Khanong,Thailand,27.9,33.4,39.3,39.4,39.4,27.4,15.4,17.5,19.8,16.2,24.0,29.5,36.0,13.6634393,100.5426907
671,672,Elbistan,Turkey,27.8,65.6,69.5,25.4,13.5,10.6,7.1,14.7,21.2,19.9,26.1,27.8,50.2,38.2022294,37.1903006
672,673,Guankou,China,27.7,53.5,39.6,33.9,25.8,25.6,20.3,15.0,20.3,20.2,30.4,34.0,37.8,30.55,115.333333
673,674,Xiangxiang,China,27.7,94.6,33.9,15.9,23.0,24.9,19.6,15.4,21.8,21.3,35.5,34.7,40.2,27.7517719,112.5255933
674,675,Haidong,China,27.7,43.0,39.5,35.3,40.3,26.8,18.3,15.6,16.1,17.7,19.8,28.0,33.5,36.3098978,102.356454
675,676,Yanan,China,27.7,45.9,47.4,37.8,41.5,20.4,14.8,14.8,15.3,16.4,18.0,24.8,37.0,48.0289233,134.0538028
676,677,Samut Songkhram,Thailand,27.7,46.9,48.9,42.8,44.5,23.1,11.4,10.4,12.6,9.0,20.3,27.3,36.8,13.4086617,100.000494
677,678,Davangere,India,27.6,37.7,41.9,34.7,28.2,20.0,15.9,10.0,11.3,11.2,41.9,41.0,39.9,14.4661266,75.9206361
678,679,Surabaya,Indonesia,27.6,25.3,18.4,24.1,16.4,19.9,21.2,31.3,31.2,26.2,36.9,39.8,39.7,-7.2459717,112.7378266
679,680,Nanzhou,China,27.5,127.8,36.9,40.6,28.0,24.2,12.8,8.0,19.5,21.0,40.6,40.2,41.1,23.066723,113.2925643
680,681,Dehong,China,27.5,35.4,45.1,52.9,53.4,31.1,16.7,13.6,10.3,15.1,14.4,19.9,25.5,24.4363819,98.5850386
681,682,Semmandalam,India,27.5,50.0,42.7,29.8,18.8,22.7,16.8,14.0,18.3,15.9,24.0,27.8,28.8,11.7647483,79.749938
682,683,Putrajaya,Malaysia,27.5,16.9,13.2,17.9,34.0,24.9,32.6,28.7,38.8,42.5,43.3,18.4,18.0,2.9384381,101.69223
683,684,Kut Sa,Thailand,27.5,34.1,44.9,61.1,59.6,24.4,10.0,6.3,12.2,7.0,17.0,26.1,27.1,16.2720591,103.9427019
684,685,Salaya,Thailand,27.5,39.9,44.7,48.9,48.6,23.1,11.6,8.9,12.3,8.8,21.5,28.7,33.8,13.794652,100.3218583
685,686,Poyang,China,27.4,45.5,35.4,32.0,23.0,23.8,20.0,13.7,19.4,21.1,32.6,31.5,29.3,29.2433823,116.8206876
686,687,Belgaum,India,27.4,72.5,47.8,27.7,25.7,18.4,17.4,12.6,14.6,9.0,20.7,22.6,35.7,15.8572666,74.5069343
687,688,Phetchabun,Thailand,27.4,29.0,54.8,58.2,54.9,34.05,13.2,12.9,16.2,10.1,13.4,22.8,24.6,16.418027,101.1556825
688,689,Shangluo,China,27.3,51.7,50.5,30.9,42.4,19.8,15.7,13.9,15.2,15.3,18.2,24.4,34.8,34.4228647,111.0489969
689,690,Yuyao,China,27.3,36.7,29.0,32.2,29.1,23.3,20.3,14.0,16.5,16.9,25.0,33.5,51.7,30.0403094,121.1500882
690,691,Uskudar,Turkey,27.3,31.6,24.5,32.3,25.9,29.1,23.7,26.0,27.4,24.5,23.5,23.5,23.5,41.0265498,29.0151321
691,692,Temirtau,Kazakhstan,27.2,32.0,41.0,27.4,20.3,24.3,19.4,14.2,15.6,30.1,31.0,34.9,36.8,50.0587825,72.9535681
692,693,Hezhou,China,27.1,44.5,33.0,37.2,26.0,23.8,17.0,17.6,15.7,17.5,25.9,32.3,35.3,24.3705146,111.3590955
693,694,Yantai,China,27.1,38.0,35.7,41.1,28.3,25.3,16.5,12.8,14.7,17.6,23.6,25.4,44.6,37.461928,121.4425255
694,695,Hallimala,India,27.1,43.8,39.6,32.8,26.6,18.2,15.6,13.1,18.1,11.8,37.6,31.4,35.1,12.7568255,77.2906373
695,696,Songling,China,27.0,27.9,40.1,39.6,28.2,27.5,19.4,18.8,18.2,22.8,30.1,22.5,27.7,50.9016626,124.9236317
696,697,Longfeng,China,27.0,52.4,46.5,34.8,35.2,19.1,12.3,15.6,6.9,11.5,22.4,33.9,34.8,23.06593,114.3896876
697,698,Wuxi,China,26.9,72.9,53.4,12.7,25.3,21.7,17.4,14.1,20.5,23.7,33.3,35.3,42.1,31.5776626,120.2952752
698,699,Panzhihua,China,26.9,46.5,41.7,29.0,28.7,19.2,18.6,14.4,19.9,21.6,21.2,32.0,30.5,26.5860102,101.7179276
699,700,Zhicheng,China,26.9,43.2,28.0,28.8,29.6,23.5,18.9,8.2,15.0,20.6,27.8,32.9,42.1,30.2956727,111.5044495
700,701,Korba,India,26.9,46.5,49.4,36.3,45.7,38.1,24.1,8.6,12.1,8.3,11.6,23.4,20.3,22.5198217,82.6350029
701,702,Or Yehuda,Israel,26.9,27.2,20.7,21.5,23.4,46.8,26.2,26.2,22.3,27.0,25.7,27.7,27.0,32.0270045,34.8629898
702,703,Talat Khwan,Thailand,26.9,36.1,39.6,43.9,49.2,24.6,12.2,11.0,13.9,11.3,24.5,26.2,30.2,18.8347567,99.0864602
703,704,Guyuan,China,26.8,43.6,38.7,35.7,51.1,22.8,16.4,14.3,15.0,14.8,15.5,26.2,29.1,35.93495,106.232668
704,705,Barmer,India,26.8,9.8,17.6,20.0,18.4,18.6,23.0,15.9,15.8,17.8,25.1,75.5,49.2,25.5814853,71.1924922
705,706,Bat Yam,Israel,26.8,30.0,26.0,27.1,27.5,31.3,27.8,28.9,27.8,24.8,21.8,21.8,25.9,32.0154565,34.7505283
706,707,San Klang,Thailand,26.8,36.0,50.8,82.7,66.7,22.0,8.5,5.2,9.6,4.6,6.2,11.5,14.3,18.7664587,99.0553967
707,708,Nai Mueang,Thailand,26.8,32.6,41.1,47.8,41.1,29.0,16.9,16.8,18.9,14.3,17.5,24.6,27.8,16.6811599,102.2957362
708,709,Sulaymaniyah,Iraq,26.8,45.8,45.8,48.7,49.1,23.3,12.7,10.8,15.0,10.5,23.6,29.0,32.7,35.5570501,45.4425963
709,710,Bijie,China,26.7,40.9,35.6,28.6,26.0,25.1,15.9,13.2,15.4,18.1,19.3,39.9,43.4,27.2150032,105.215166
710,711,Anekal,India,26.7,37.1,37.1,37.1,37.1,22.6,16.8,16.4,22.2,17.9,46.1,33.2,37.7,12.7103145,77.6886188
711,712,Satna,India,26.7,23.2,28.1,32.5,34.0,38.8,25.5,19.8,23.3,22.7,24.4,27.1,14.5,24.6954445,80.7770348
712,713,Almaty,Kazakhstan,26.7,81.7,55.0,31.0,17.2,12.3,10.6,8.8,7.8,13.5,18.9,31.1,34.4,43.2363924,76.9457275
713,714,Atbasar,Kazakhstan,26.7,39.9,49.6,36.6,32.2,27.7,8.4,8.3,8.2,12.7,32.1,40.7,33.9,51.8099624,68.3584729
714,715,Japalak,Kyrgyzstan,26.7,66.7,48.5,27.3,14.2,10.6,11.7,12.7,12.7,14.7,22.8,36.2,51.7,39.9532526,72.4827236
715,716,Sehitkamil,Turkey,26.7,44.7,27.8,24.9,21.2,17.5,15.7,14.7,19.1,21.4,28.3,33.2,42.0,37.0727587,37.3949769
716,717,Johor Bahru,Malaysia,26.6,19.6,14.7,17.7,35.3,24.6,26.6,26.4,32.0,37.7,52.8,18.5,13.4,1.4581986,103.7649059
717,718,Jieyang,China,26.5,35.5,43.0,36.8,28.7,22.5,13.3,11.2,15.4,17.4,22.8,33.2,37.4,23.553156,116.3680354
718,719,Cheonan,South Korea,26.5,35.8,46.9,36.4,26.7,23.3,23.3,18.8,18.7,16.7,20.9,21.5,30.1,36.8150283,127.1140654
719,720,Ban Dong,Thailand,26.5,23.3,56.7,66.1,95.6,52.9,10.2,7.8,10.4,7.7,10.2,14.5,19.5,18.7858653,98.8432921
720,721,Tha Tum,Thailand,26.5,30.0,42.8,44.9,39.5,28.55,17.6,17.8,20.3,16.0,18.7,22.2,26.0,15.3109588,103.6775046
721,722,Yerevan,Armenia,26.4,74.3,36.1,26.4,14.9,12.6,11.4,11.4,14.4,16.0,18.6,28.9,51.9,40.1777112,44.5126233
722,723,Yulin,China,26.4,39.9,35.1,36.8,29.0,23.5,17.4,17.0,14.1,15.3,21.8,34.6,32.4,38.2851657,109.7290619
723,724,Seremban,Malaysia,26.4,31.9,13.2,22.8,48.8,29.2,22.0,21.3,21.8,36.6,44.2,13.0,10.2,2.723099,101.9400601
724,725,Si Wichian,Thailand,26.4,30.9,50.4,72.8,49.7,24.9,10.8,10.3,10.0,7.5,13.6,18.1,18.9,14.4825846,105.0091983
725,726,Wenxing,China,26.3,112.8,27.2,26.0,24.8,22.8,15.9,14.7,21.5,17.5,30.3,32.5,43.7,31.3084822,106.5274605
726,727,Lincang,China,26.3,30.4,39.4,46.5,57.7,27.4,17.3,14.7,14.6,17.1,16.6,19.1,20.6,23.88848,100.0879344
727,728,Akurana,Sri Lanka,26.3,44.9,31.7,42.9,40.1,25.4,20.3,19.6,22.8,14.4,15.2,17.6,21.2,7.36032,80.60062
728,729,Khon Kaen,Thailand,26.2,40.7,46.8,49.7,44.8,26.6,11.8,6.9,12.6,6.9,14.6,21.4,24.7,16.4303916,102.8355904
729,730,Riyadh,Saudi Arabia,26.1,28.9,26.0,25.8,24.3,32.3,24.7,16.5,27.4,41.5,24.6,26.3,15.7,23.333333,45.333333
730,731,Luorong,China,26.0,48.0,32.4,40.3,27.3,21.2,14.1,15.6,11.5,15.1,21.7,30.0,36.3,24.406095,109.597266
731,732,Pumiao,China,26.0,42.9,32.6,34.8,28.3,23.6,15.3,15.4,14.1,15.7,22.9,32.1,34.8,22.7519328,108.4907358
732,733,Ulanqab,China,26.0,33.5,30.3,30.1,37.7,26.0,18.2,19.6,16.9,18.1,22.4,21.2,38.2,40.9902685,113.1315646
733,734,Dandong,China,26.0,41.1,40.3,42.6,31.4,18.4,14.9,15.0,11.5,15.6,17.7,23.8,39.0,40.5791477,124.4407146
734,735,Huangnan,China,26.0,43.5,38.9,36.3,42.7,25.5,16.2,12.9,13.8,14.4,14.8,22.8,27.9,35.0631602,101.6514933
735,736,Wenshan,China,26.0,31.5,35.0,40.3,54.8,21.8,14.4,13.1,12.9,15.8,18.6,27.4,31.4,23.399102,104.2172181
736,737,Bishkek,Kyrgyzstan,26.0,94.6,45.8,23.7,14.5,11.8,12.6,10.6,10.2,11.4,16.3,24.6,36.1,42.8777895,74.6066926
737,738,Nakhon Sawan,Thailand,26.0,35.1,43.4,51.5,58.3,34.3,10.3,9.7,14.0,10.1,12.2,22.4,31.4,15.705783,100.1330046
738,739,Chongzuo,China,25.9,52.2,38.3,37.1,29.2,24.3,14.2,14.7,11.8,11.1,18.4,25.4,33.7,22.4910206,107.328244
739,740,Wuzhou,China,25.9,33.7,33.0,37.8,27.1,24.7,19.8,20.4,17.0,16.5,21.8,29.7,29.2,23.5715402,111.0139268
740,741,Nakhon Pathom,Thailand,25.9,35.9,40.2,39.2,39.3,25.45,11.6,10.5,13.3,11.6,17.4,27.0,42.0,13.8190071,100.0639917
741,742,Selcuklu,Turkey,25.9,73.0,39.4,15.2,10.6,9.0,14.0,13.9,17.1,14.7,24.8,24.2,54.1,37.8768663,32.4873945
742,743,Shiwan,China,25.8,35.6,36.7,33.2,25.8,23.2,16.6,14.5,16.4,18.2,26.5,34.2,35.2,23.0083241,113.077596
743,744,Alxa League,China,25.8,35.1,31.6,32.5,55.4,33.7,21.0,19.5,16.2,17.0,14.0,15.9,18.9,40.480869,102.84579
744,745,Ayutthaya,Thailand,25.8,33.6,41.1,43.2,48.9,26.8,12.1,10.8,15.3,13.8,17.8,20.5,26.0,14.3189468,100.5111681
745,746,Qitaihe,China,25.7,47.3,43.9,32.3,34.7,15.2,9.4,8.6,7.8,9.4,19.6,34.9,45.4,45.7703578,131.0066556
746,747,Shuangyashan,China,25.7,47.1,40.1,31.3,47.3,18.6,11.1,10.7,8.2,11.4,19.6,29.4,33.2,46.522721,132.645516
747,748,Ankang,China,25.7,54.6,42.2,26.9,29.1,18.6,13.7,9.3,9.9,12.9,17.9,28.3,47.7,32.7064648,109.0177837
748,749,Tirunelveli,India,25.7,46.0,39.5,35.9,27.1,21.3,13.4,13.1,17.7,10.1,23.1,24.5,32.8,8.7284271,77.7112925
749,750,Wenzhou,China,25.6,30.5,31.6,35.4,33.2,24.2,21.8,16.0,15.9,14.6,21.7,26.5,35.5,27.9963899,120.695345
750,751,Durg,India,25.6,42.4,27.2,23.2,17.8,17.9,15.8,15.1,19.5,13.2,26.0,41.7,49.9,21.1982964,81.4007922
751,752,Cuddalore,India,25.6,35.4,34.7,33.4,23.6,25.2,19.5,16.0,20.0,15.8,28.2,26.8,40.0,11.520207,79.3396356
752,753,Tha Hin,Thailand,25.6,28.3,29.4,47.1,53.1,33.05,13.0,13.3,20.2,15.4,18.8,22.6,29.8,12.6368253,99.9510245
753,754,Ban Mai,Thailand,25.6,17.4,39.5,48.0,46.9,18.3,11.0,8.9,13.8,19.25,24.7,21.7,22.5,16.6901016,100.2729108
754,755,Khlong Si,Thailand,25.6,29.0,37.4,45.6,45.3,22.3,8.7,7.7,9.375,11.05,12.725000000000001,14.4,14.8,14.0982861,100.6871222
755,756,Asan,South Korea,25.5,34.3,45.7,35.8,26.6,22.6,22.1,18.1,17.6,16.2,20.1,20.0,28.3,36.7899498,127.0026769
756,757,Bang Kruai,Thailand,25.5,36.5,36.5,45.8,46.8,23.2,11.2,9.4,12.7,10.0,24.2,29.3,33.9,13.8027856,100.4773195
757,758,Chongqing,China,25.4,54.1,38.9,24.5,22.8,18.9,13.1,10.7,13.4,14.4,17.9,30.0,47.2,30.05518,107.8748712
758,759,Amasya,Turkey,25.4,54.6,26.7,24.1,17.2,17.0,16.4,15.4,18.3,20.0,26.1,27.5,45.5,40.6569451,35.7727169
759,760,Hekimdag,Turkey,25.4,44.6,29.0,27.2,19.5,18.2,19.5,20.7,22.4,17.9,22.9,22.2,39.7,39.9103359,30.5640756
760,761,Na Di,Thailand,25.3,40.1,39.5,36.3,33.5,21.9,15.149999999999999,8.4,9.1,9.7,21.5,25.7,25.7,14.2021282,101.8436527
761,762,Kemaliye,Turkey,25.3,48.6,32.5,24.3,15.4,21.7,24.9,23.6,25.0,12.8,16.6,11.4,47.6,39.2620966,38.4965266
762,763,Nanning,China,25.2,41.2,31.0,33.1,25.8,22.8,14.5,15.2,13.8,15.6,22.7,32.4,33.0,22.8193063,108.3627211
763,764,Wuxue,China,25.2,44.0,38.6,28.2,21.6,20.0,17.2,12.4,16.8,19.1,28.1,27.4,28.9,29.847035,115.5562861
764,765,Lengshuitan,China,25.2,85.1,37.0,16.1,25.7,23.3,18.2,14.7,17.1,21.2,28.1,33.4,38.1,26.5646555,111.6328512
765,766,Guangyuan,China,25.2,57.0,37.2,25.7,27.4,18.9,16.4,12.1,10.7,10.9,16.3,25.9,44.5,32.2685578,105.8395358
766,767,Ban Tai,Thailand,25.2,20.9,31.6,42.0,40.7,29.1,17.5,17.2,18.0,17.2,19.2,24.4,35.3,17.4300911,103.4016164
767,768,Phichit,Thailand,25.2,29.9,40.9,50.3,53.9,31.5,9.1,10.2,15.1,7.6,9.4,23.5,34.9,16.4428085,100.3438228
768,769,Godekli,Turkey,25.0,63.9,23.6,19.9,10.9,13.0,12.4,13.3,13.2,9.1,17.0,31.0,60.2,41.0875089,36.2827442
769,770,Jiamusi,China,25.0,47.8,39.8,29.5,43.0,16.5,12.3,12.9,9.7,10.8,18.2,27.3,32.9,47.02157,132.044137
770,771,Yingtan,China,25.0,41.9,31.7,32.9,23.2,19.7,15.7,11.0,17.0,18.9,26.5,26.3,35.7,28.2378405,117.1143221
771,772,Zhushan Qu,China,25.0,35.7,25.6,25.9,22.9,23.0,19.4,14.7,17.9,17.3,30.7,31.4,34.4,29.302589,117.1970515
772,773,Pyeongtaek,South Korea,25.0,31.3,35.0,32.6,24.0,24.7,26.2,21.4,20.1,19.8,23.8,19.2,23.0,36.9924966,127.1127168
773,774,Bozuyuk,Turkey,25.0,34.1,26.7,22.9,22.8,23.3,18.7,18.9,21.7,24.7,25.5,26.3,34.5,39.9067759,30.0346207
774,775,Kanchipuram,India,24.9,34.9,39.5,28.0,25.0,24.8,18.2,14.1,19.0,10.1,26.0,15.2,28.6,12.9647163,79.9839686
775,776,Perai,Malaysia,24.9,23.6,22.7,30.1,39.3,25.9,27.8,26.6,21.7,29.6,21.3,14.7,16.0,5.3870844,100.3821843
776,777,Chengde,China,24.8,32.8,37.9,37.3,29.7,23.9,14.9,16.2,13.1,18.3,24.6,20.9,28.6,40.9507147,117.9567031
777,778,Leiyang,China,24.8,79.3,29.5,16.4,27.2,21.6,15.8,12.4,17.3,21.9,33.2,31.3,37.5,26.4255243,112.8545783
778,779,Varanasi,India,24.8,34.8,16.7,26.3,25.0,29.4,22.5,10.2,12.6,11.9,23.5,45.9,39.1,25.3356491,83.0076292
779,780,Veerbhadra,India,24.8,36.8,36.8,23.8,25.7,26.3,22.3,15.1,18.1,21.5,25.0,20.1,41.5,17.3675655,78.5250818
780,781,Nong Boua,Laos,24.8,22.5,34.6,42.8,46.6,35.4,18.2,13.7,19.5,16.0,22.1,29.2,34.0,17.391875,104.81459
781,782,Tongren,China,24.7,57.8,41.9,26.3,22.7,17.1,13.4,12.0,12.6,14.1,16.5,24.3,38.2,27.952938,108.584018
782,783,Daqing,China,24.7,46.5,39.5,28.1,32.8,18.4,11.3,14.6,7.8,11.0,22.8,31.9,31.5,46.3240228,124.5598093
783,784,Ubon Ratchathani,Thailand,24.7,24.5,52.1,54.8,52.9,32.75,12.6,11.4,14.1,9.9,15.2,17.5,19.5,15.2274235,104.8589462
784,785,Sam Phran,Thailand,24.7,40.8,47.7,54.6,42.2,21.6,11.7,10.3,16.2,10.5,27.0,37.2,44.8,13.7258154,100.2138628
785,786,Lam Luk Ka,Thailand,24.7,34.1,40.9,42.1,39.2,22.8,8.0,6.5,8.4,7.9,17.2,20.9,27.1,13.9927057,100.8080617
786,787,Gannan,China,24.6,32.2,30.8,31.7,36.9,20.2,16.5,15.7,16.2,15.2,17.9,30.8,31.7,34.3971917,102.7098994
787,788,Pyeongtaek,South Korea,24.6,31.4,38.8,35.0,26.9,23.4,22.7,19.2,16.4,16.0,21.2,19.6,25.3,36.9924966,127.1127168
788,789,Thanyaburi,Thailand,24.6,37.5,45.0,45.9,42.2,22.2,8.8,7.1,8.4,8.5,18.8,24.0,27.3,14.0326433,100.7722258
789,790,Corum,Turkey,24.6,58.4,19.8,17.2,14.4,14.6,15.5,14.4,15.9,17.2,30.8,25.2,50.0,40.5498762,34.9537362
790,791,Qinnan Qu,China,24.5,42.8,33.1,31.8,26.3,20.8,11.7,10.9,11.3,13.7,23.3,33.8,33.2,21.9009245,108.7695404
791,792,Guiyang,China,24.5,40.6,30.2,30.2,30.6,23.3,17.3,13.8,11.3,14.3,17.8,28.4,34.9,26.6499922,106.6246178
792,793,Ordos,China,24.5,29.5,29.5,34.2,43.2,27.1,13.1,15.4,18.6,18.0,16.3,17.3,31.8,39.4602947,108.8134284
793,794,Yeoju,South Korea,24.5,31.3,37.8,36.8,23.8,22.2,22.8,17.9,14.8,15.5,22.1,24.0,26.7,37.2982901,127.637033
794,795,Changhua,Taiwan,24.5,28.1,32.1,32.6,35.3,27.6,15.9,12.1,13.4,21.1,28.8,27.7,19.7,24.0755667,120.5444667
795,796,Erzincan,Turkey,24.5,60.2,34.1,22.5,15.8,17.9,15.5,8.3,16.8,16.0,20.5,26.7,39.9,39.6073429,39.2013209
796,797,Cirebon,Indonesia,24.4,8.4,22.8,26.5,11.7,10.8,15.4,11.2,22.5,23.6,32.8,44.0,43.6,-6.7137044,108.5608483
797,798,Bursa,Turkey,24.4,45.8,31.8,24.7,20.1,23.5,18.1,17.1,16.1,14.7,23.7,21.1,35.7,39.9895878,28.8944669
798,799,Chaozhou,China,24.3,29.6,41.2,37.1,28.7,23.0,12.5,11.5,14.3,16.4,20.0,27.1,30.8,23.656593,116.6204223
799,800,Lubu,China,24.3,29.5,33.3,33.3,28.2,21.9,16.6,11.5,14.5,16.2,23.6,34.5,30.2,23.1806492,112.2894399
800,801,Shaoguan,China,24.3,33.0,32.7,30.9,26.2,21.5,13.7,14.2,15.4,15.1,23.8,32.9,31.4,24.8309489,113.8155263
801,802,Xiangxi,China,24.3,54.0,36.0,23.9,23.8,19.6,14.8,12.9,16.3,17.2,17.5,23.8,33.3,28.7120445,109.806804
802,803,Shangrao,China,24.3,35.0,26.3,28.6,25.3,23.2,19.6,13.0,15.9,18.5,25.2,25.6,35.4,28.7435852,117.40539
803,804,Zhaotong,China,24.3,36.0,38.8,27.1,29.6,22.5,19.4,14.6,12.8,15.0,18.2,29.2,30.2,27.3417508,103.7146923
804,805,Rua Yai,Thailand,24.3,35.4,43.4,46.2,54.0,30.7,7.4,7.1,11.3,8.8,12.5,24.2,31.7,14.4756457,100.0883107
805,806,Jian,China,24.2,37.3,29.4,29.4,20.7,19.5,14.4,13.0,17.2,18.2,29.5,28.1,34.1,27.0431288,114.9034181
806,807,Bortala,China,24.2,56.9,53.5,25.1,15.4,15.3,14.2,11.9,11.2,12.0,17.1,19.0,37.6,44.904806,82.0629703
807,808,Fenghua,China,24.2,32.5,25.2,28.1,29.4,21.4,21.0,11.7,14.7,15.7,22.4,27.1,42.1,29.6575869,121.4017136
808,809,Udon Thani,Thailand,24.2,29.0,39.2,50.3,49.8,26.2,12.7,9.6,14.3,9.7,13.6,18.0,19.3,17.4082448,102.7868105
809,810,Pattaya City,Thailand,24.2,32.7,51.9,41.4,45.8,22.6,8.5,6.8,8.8,7.5,17.3,23.4,29.7,12.9366924,100.8865002
810,811,Nong Prue,Thailand,24.2,33.9,44.0,46.1,46.2,22.9,8.9,7.7,9.6,8.1,15.8,20.9,26.6,14.6855141,99.4400917
811,812,Bang Talat,Thailand,24.2,36.5,43.3,45.0,42.5,20.8,7.7,6.3,8.6,7.4,19.8,24.1,30.2,13.8924332,100.5289154
812,813,Tarsus,Turkey,24.2,43.8,37.0,21.4,14.8,17.9,20.2,19.3,20.5,18.0,21.8,23.6,32.9,36.9164834,34.895149
813,814,Zunyi,China,24.1,42.4,30.9,26.4,22.3,21.5,13.9,12.9,13.5,16.1,18.6,30.5,40.3,27.6912954,106.9155974
814,815,Hanganakatti,India,24.1,23.3,25.8,73.0,23.5,15.3,11.5,9.6,10.3,8.3,28.2,27.1,28.1,15.2272748,75.608572
815,816,Harnampur,India,24.1,28.3,13.9,17.4,15.6,29.3,20.4,13.7,18.4,16.5,31.1,51.1,31.1,24.2473701,80.7725716
816,817,Puducherry,India,24.1,40.9,29.2,22.8,20.3,22.0,17.6,14.9,18.9,12.9,27.6,25.4,36.3,10.9156489,79.8069488
817,818,Anantapur,India,24.0,20.9,34.1,31.1,29.6,25.8,18.8,14.3,13.4,17.0,31.3,23.0,31.2,14.72422,77.4306738
818,819,Bnei Atarot,Israel,24.0,25.1,19.9,21.1,24.0,30.8,25.3,24.7,21.5,22.6,23.0,25.2,23.6,32.0235637,34.9118719
819,820,Samut Sakhon,Thailand,24.0,24.2,31.8,34.7,34.1,16.3,9.3,9.9,11.4,10.7,22.8,38.2,44.9,13.5497782,100.2742813
820,821,Hechi,China,23.9,39.2,29.8,34.8,24.6,20.4,14.4,15.3,11.4,15.5,18.2,29.7,33.6,24.7169004,107.8857367
821,822,Baishan,China,23.9,42.6,34.6,28.7,28.2,17.8,15.2,14.7,9.9,12.9,21.6,22.8,37.3,41.936895,126.4183792
822,823,Rustavi,Georgia,23.9,65.1,24.1,24.7,17.0,17.1,14.7,13.3,18.9,13.6,21.0,27.9,28.0,41.54309,45.0112804
823,824,Bengkulu,Indonesia,23.9,13.1,19.7,26.6,4.8,12.8,14.5,10.9,30.9,26.7,29.4,23.4,24.1,-3.5186763,102.5359834
824,825,Ang Thong,Thailand,23.9,35.5,39.0,41.3,52.0,31.7,11.4,8.5,11.7,9.4,13.4,22.0,29.6,14.5924644,100.4513754
825,826,Enshi,China,23.8,62.3,41.1,23.1,22.9,16.0,12.8,10.6,11.5,14.0,17.4,22.7,32.5,30.2745483,109.4833079
826,827,Taizhou,China,23.8,33.1,27.8,26.5,26.4,21.4,20.5,14.8,15.7,14.9,20.6,27.0,35.9,28.6581723,121.4163876
827,828,Jinshi,China,23.7,131.9,40.5,35.9,26.7,23.4,12.7,11.1,21.5,19.3,28.2,25.4,33.8,29.494523,111.85987
828,829,Wendeng,China,23.7,36.4,32.0,38.1,24.6,21.8,15.6,14.2,13.0,12.9,16.5,18.4,38.8,37.1954062,122.0834466
829,830,Boralday,Kazakhstan,23.7,65.3,50.2,33.2,13.4,4.3,8.4,9.1,8.8,2.2,23.3,35.5,32.1,42.7803353,69.6615776
830,831,Ban Pong,Thailand,23.7,18.6,40.1,74.5,75.8,16.6,4.6,2.6,4.2,3.2,4.6,9.9,15.8,13.8542911,99.8618949
831,832,Tokat,Turkey,23.7,56.9,26.4,18.2,15.4,14.7,13.6,14.4,17.7,14.8,20.5,25.3,44.9,40.3891816,36.6315075
832,833,Maba,China,23.6,34.2,31.1,31.9,24.2,20.4,12.2,12.5,13.7,14.4,22.3,34.8,32.6,32.9739441,118.7769825
833,834,Pasir Gudang,Malaysia,23.6,11.0,7.9,12.6,32.5,21.9,24.4,23.2,27.0,42.6,44.7,20.9,12.7,1.4953437,103.9207048
834,835,Buca,Turkey,23.6,52.5,23.8,19.9,14.1,18.9,17.2,17.8,23.2,25.2,19.1,19.9,23.2,38.3880413,27.1733777
835,836,Guangzhou,China,23.5,29.0,32.7,31.1,23.6,22.1,15.3,12.6,15.7,16.2,23.3,30.6,30.2,23.1301964,113.2592945
836,837,Sakarya,Turkey,23.5,39.4,28.0,23.1,23.4,20.5,16.5,15.8,17.4,16.2,25.8,23.6,32.4,40.7731834,30.481606
837,838,Liupanshui,China,23.4,34.1,37.8,28.9,27.9,20.5,15.0,12.1,12.5,15.2,16.9,27.6,33.2,26.5963778,104.8279652
838,839,Xishuangbanna,China,23.4,25.2,36.4,56.9,66.9,22.7,11.8,10.7,9.2,11.4,13.3,17.0,21.9,22.0116128,100.7960029
839,840,Melaka,Malaysia,23.4,16.5,13.5,15.5,30.0,19.6,23.7,23.4,26.8,29.6,51.1,17.7,12.3,2.3293744,102.2880962
840,841,Seosan,South Korea,23.4,30.9,40.9,32.0,25.5,22.6,20.0,17.3,16.8,16.4,15.8,17.2,26.5,36.784499,126.450317
841,842,Foshan,China,23.3,28.4,31.1,28.6,23.5,21.1,14.5,12.0,15.2,15.4,24.0,33.5,33.2,23.0239788,113.1159558
842,843,Hinggan,China,23.3,33.8,25.6,31.1,40.6,22.4,17.2,15.1,12.7,16.2,19.9,22.2,23.1,46.2425485,121.4088758
843,844,Changleng,China,23.3,41.8,37.2,29.6,20.3,19.2,14.9,10.7,13.8,14.7,25.0,27.0,26.2,28.7001501,115.8163004
844,845,Baytik,Kyrgyzstan,23.3,50.0,41.7,27.4,15.5,8.9,9.6,6.4,9.95,13.5,16.3,25.6,38.6,42.7381512,74.5494432
845,846,Tha Maka,Thailand,23.3,49.6,54.6,46.5,34.1,15.8,6.6,4.9,4.9,4.4,11.3,19.7,29.2,13.9539088,99.8041757
846,847,Mukdahan,Thailand,23.3,27.5,34.3,40.6,41.4,28.049999999999997,14.7,13.6,18.6,12.7,17.7,20.2,21.8,16.5414065,104.7290699
847,848,Fuli,China,23.2,36.2,36.3,28.5,39.5,16.7,12.1,12.0,9.5,10.4,17.7,26.0,32.4,24.7898826,110.5538744
848,849,Yichun,China,23.2,45.9,40.4,31.0,24.2,14.6,9.4,9.8,8.1,9.6,16.1,28.1,40.9,28.3803015,115.0153957
849,850,Dasha,China,23.1,28.5,31.2,30.1,22.9,21.6,15.2,13.0,16.2,15.8,22.7,30.8,29.6,31.8526609,107.7181175
850,851,Phra Sing,Thailand,23.1,28.0,44.2,71.1,77.7,12.8,4.2,2.7,6.2,3.5,4.8,9.5,13.3,18.7882068,98.9813773
851,852,Khao Yai,Thailand,23.1,33.5,42.5,63.5,52.0,20.2,7.8,7.7,7.4,4.8,14.8,24.2,25.3,12.9190767,100.7768818
852,853,Haikou,China,23.0,28.9,41.0,37.5,38.4,20.3,16.1,8.3,13.2,17.3,15.9,20.3,21.7,20.0462328,110.1956502
853,854,Gadag,India,23.0,22.9,21.7,32.4,17.7,27.0,28.5,20.5,8.4,10.8,27.9,24.5,28.0,15.416692,75.6815801
854,855,Pekanbaru,Indonesia,23.0,18.5,15.8,18.9,19.8,18.9,20.3,22.4,27.0,39.9,42.2,17.9,14.4,0.5262455,101.4515727
855,856,Bagcilar,Turkey,23.0,32.5,29.8,33.4,19.3,16.1,17.1,19.2,16.2,23.7,23.7,23.7,23.7,41.034547,28.8567558
856,857,Mersin,Turkey,23.0,44.8,47.8,19.1,15.8,18.1,18.6,20.8,23.1,10.1,10.3,10.3,10.3,36.7978381,34.6298391
857,858,Kuala Lumpur,Malaysia,22.9,18.1,16.9,19.7,27.1,18.0,23.4,18.9,23.9,35.3,43.0,16.3,13.5,3.1526589,101.7022205
858,859,Kuala Selangor,Malaysia,22.9,16.6,19.4,23.8,29.9,26.2,31.6,26.6,22.1,33.2,26.3,10.8,8.8,3.3621022,101.3455503
859,860,Phnom Penh,Cambodia,22.8,9.3,24.799999999999997,40.3,49.8,28.2,15.5,13.9,16.8,16.2,14.3,14.6,24.4,11.5730391,104.857807
860,861,Zhaoqing,China,22.8,26.7,31.3,29.4,25.2,21.1,15.6,11.7,15.2,16.2,22.1,30.5,28.5,23.0501661,112.4603629
861,862,Hongjiang,China,22.8,66.0,39.0,17.2,25.8,20.3,15.9,12.4,15.3,21.1,25.9,29.1,30.2,27.2328573,110.0790255
862,863,Yuxi,China,22.8,31.1,45.0,38.0,42.7,20.2,13.4,8.7,11.9,13.9,13.1,19.0,19.1,24.3511487,102.527044
863,864,Ningbo,China,22.8,32.2,23.6,27.0,25.7,19.7,17.8,12.0,13.9,14.6,19.3,24.3,42.5,29.8622194,121.6203873
864,865,Bagalkot,India,22.8,22.0,20.3,22.9,22.9,22.9,22.9,22.9,22.9,22.9,22.9,23.4,24.3,16.1793224,75.6999315
865,866,Icheon,South Korea,22.8,32.8,34.4,32.1,22.2,21.4,20.8,16.9,14.3,14.1,19.8,21.7,24.1,37.2808823,127.4429132
866,867,Jaffna,Sri Lanka,22.8,52.1,34.8,31.2,23.6,16.5,15.0,14.6,16.2,10.9,27.7,12.8,27.1,9.665093,80.0093029
867,868,Khlong Takhot,Thailand,22.8,55.6,50.8,47.0,37.5,15.3,8.4,6.1,7.8,5.0,13.2,22.1,32.1,12.4833,99.8167
868,869,Nakhon Ratchasima,Thailand,22.7,19.9,42.7,51.5,41.3,24.0,9.9,7.0,10.2,7.4,13.7,20.8,24.2,14.9747339,102.0981161
869,870,Racha Thewa,Thailand,22.7,29.0,40.9,40.0,42.8,21.8,7.1,7.5,8.7,8.8,17.3,20.7,26.2,13.6534936,100.7203386
870,871,Saraburi,Thailand,22.7,29.9,31.1,37.2,37.0,24.55,12.1,12.3,16.5,13.6,18.0,21.3,26.3,14.5249471,100.9160757
871,872,Anshun,China,22.6,36.7,29.2,28.7,28.2,21.5,14.8,11.2,10.3,14.1,16.8,27.2,32.3,26.254911,105.9437773
872,873,Jining,China,22.6,31.1,27.9,27.8,32.8,23.4,14.5,13.5,13.2,15.7,19.6,17.2,34.0,35.4125047,116.5849266
873,874,Bang Yai,Thailand,22.6,24.4,24.4,24.4,46.3,24.2,11.2,9.3,12.0,10.1,24.3,29.8,35.1,13.8354131,100.3655147
874,875,Hua Hin,Thailand,22.6,32.2,37.3,43.3,48.1,20.3,8.9,6.8,7.9,5.2,13.1,23.4,25.4,12.5699326,99.9573437
875,876,Huangshan,China,22.5,36.2,30.2,29.5,24.4,20.7,14.3,7.7,10.5,13.1,22.9,25.4,32.2,29.7172627,118.3324811
876,877,Ariyalur,India,22.5,34.6,37.4,28.1,24.2,19.9,14.4,14.0,16.4,15.6,22.2,16.0,20.6,11.1530559,79.2585797
877,878,Batam,Indonesia,22.5,15.0,13.5,15.8,30.4,23.4,24.1,21.3,24.0,25.8,33.0,24.2,19.7,1.1030815,104.0383696
878,879,Ulaanbaatar,Mongolia,22.5,74.4,52.3,21.8,11.0,5.2,4.7,5.7,3.3,4.4,11.9,30.0,47.5,47.9184676,106.9177016
879,880,Inje-gun,South Korea,22.5,26.9,36.1,37.4,27.6,19.9,17.2,21.2,13.3,13.5,13.4,20.4,23.1,38.0694,128.1706
880,881,Izmir,Turkey,22.5,41.8,19.8,13.8,11.9,16.6,17.1,23.7,29.7,16.3,23.0,21.9,34.1,38.23166,27.02997
881,882,Cayirova,Turkey,22.5,26.5,22.0,18.9,18.3,20.2,21.1,24.1,26.9,20.9,26.3,20.3,24.1,40.8105337,29.3473731
882,883,Qingyuan,China,22.4,27.3,29.2,29.8,24.7,21.9,15.5,13.9,16.6,14.7,19.9,28.2,28.1,23.6832984,113.0505994
883,884,Tonghua,China,22.4,45.0,32.0,23.5,26.5,16.8,13.6,14.4,11.3,15.8,18.2,17.1,34.2,42.123889,125.848333
884,885,Siheung,South Korea,22.4,28.3,32.5,32.2,23.6,23.4,21.5,19.3,15.3,14.6,19.1,18.8,21.9,37.3798891,126.8032255
885,886,Talat Kwan,Thailand,22.4,29.1,35.7,39.3,40.9,22.1,9.1,7.5,9.8,8.1,19.7,21.8,26.8,13.8586096,100.4922575
886,887,Kastamonu,Turkey,22.4,43.1,20.1,19.1,16.7,17.1,16.5,17.9,18.7,20.4,22.0,22.5,34.0,41.3680217,33.7619177
887,888,Haimen,China,22.3,28.7,32.5,28.5,24.3,20.9,10.5,9.8,13.4,15.6,20.7,27.6,34.1,31.8729183,121.1771295
888,889,Xinhui,China,22.3,25.1,28.5,29.2,24.2,22.6,11.4,9.1,11.2,12.2,24.6,33.3,36.7,22.3836907,113.0328366
889,890,Weihai,China,22.3,32.4,29.0,34.2,25.1,23.6,18.2,16.9,14.3,14.5,13.9,15.5,30.6,37.5120997,122.1152599
890,891,Thiruvananthapuram,India,22.3,44.5,38.0,29.9,19.0,14.9,13.9,9.5,12.3,12.6,22.7,23.3,26.2,8.4882267,76.947551
891,892,Holon,Israel,22.3,24.5,20.1,21.2,22.2,28.8,23.2,22.8,18.2,19.0,20.0,21.3,26.3,32.0193121,34.7804076
892,893,Anseong,South Korea,22.3,32.7,40.2,35.4,21.1,19.0,15.7,14.1,13.4,12.0,20.0,20.8,25.3,37.007773,127.279971
893,894,Plaeng Yao,Thailand,22.3,25.4,38.3,38.0,33.3,22.849999999999998,12.4,12.4,13.6,12.6,21.3,19.5,23.1,13.5498475,101.3446992
